stop_id,stop_code,stop_name,stop_desc,stop_lat,stop_lon,zone_id,stop_url,location_type,parent_station
2,2,D @ Adams (S),,36.18168,-115.147089,,,,
3,3,D @ Alexander (N),,36.194018,-115.14733,,,,
6,6,D @ Frederick (S),,36.192119,-115.147549,,,,
7,7,D @ Freeman (S),,36.189829,-115.147419,,,,
9,9,D @ Kasper (S),,36.194929,-115.147549,,,,
10,10,D @ Madison (N),,36.184299,-115.146999,,,,
11,11,D @ Monroe (S),,36.184607,-115.147156,,,,
12,12,D @ Owens (N),,36.188303,-115.147151,,,,
13,13,D @ Owens (S),,36.188259,-115.147338,,,,
14,14,D @ Paul (N),,36.191228,-115.147299,,,,
16,16,D @ Washington (N),,36.181298,-115.146849,,,,
17,17,H @ Bonanza (N),,36.1779,-115.151749,,,,
18,18,H @ Doolittle (N),,36.192259,-115.151708,,,,
19,19,H @ Doolittle (S),,36.191869,-115.151959,,,,
21,21,H @ Lake Mead (S),,36.195389,-115.152018,,,,
23,23,H @ McWilliams (S),,36.17889,-115.152018,,,,
24,24,H @ Monroe (N),,36.185209,-115.152018,,,,
25,25,H @ Monroe (N),,36.185469,-115.151789,,,,
27,27,H @ Nucleus (N),,36.189349,-115.152058,,,,
28,28,H @ Owens (N),,36.189309,-115.151789,,,,
29,29,H @ Owens (S),,36.187959,-115.152058,,,,
30,30,H @ Washington (N),,36.181028,-115.151749,,,,
31,31,H @ Washington (S),,36.180389,-115.151979,,,,
34,34,4th @ Fremont (N),,36.169248,-115.141989,,,,
35,35,4th @ Bonneville (N),,36.164058,-115.145368,,,,
36,36,4th @ Lewis (N),,36.166768,-115.143609,,,,
39,39,Adams @ Boulder City Hospital (E),,35.96831,-114.843729,,,,
40,40,Adams @ Avenue B (E),,35.968609,-114.836639,,,,
41,41,Adams @ Georgia (E),,35.968919,-114.8308,,,,
42,42,Adams @ San Felipe (E),,35.96913,-114.82686,,,,
50,50,Alta @ Altamira (W),,36.166629,-115.256508,,,,
52,52,Alta @ Antelope (W),,36.166599,-115.25174,,,,
55,55,Alta @ Brush (E),,36.165948,-115.209808,,,,
56,56,Alta @ Campbell (W),,36.16635,-115.18205,,,,
57,57,Alta @ Campbell (E),,36.166199,-115.183638,,,,
60,60,Alta @ Carmel Peak (W),,36.166579,-115.26713,,,,
61,61,Alta @ Hidden (W),,36.166519,-115.27049,,,,
63,63,Alta @ Decatur (W),,36.166648,-115.20679,,,,
66,66,Alta @ Falcon (E),,36.16594,-115.214548,,,,
67,67,Alta @ Falcon (W),,36.16612,-115.216108,,,,
68,68,Bonneville @ Grand Central (E),,36.166629,-115.154619,,,,
69,69,Bonneville @ Grand Central (W),,36.166649,-115.156546,,,,
70,70,Alta @ Hussey (W),,36.166478,-115.229099,,,,
71,71,Alta @ Brush (W),,36.166149,-115.209158,,,,
72,72,Alta @ Jones (E),,36.16629,-115.22312,,,,
73,73,Alta @ Jones (W),,36.16647,-115.224588,,,,
76,76,Alta @ Lindy (E),,36.16633,-115.236679,,,,
77,77,Alta @ Lorenzi (W),,36.166559,-115.242539,,,,
78,78,Bonneville @ MLK (E),,36.166149,-115.160129,,,,
81,81,Alta @ Rainbow (E),,36.166358,-115.243489,,,,
82,82,Alta @ Rainbow (W),,36.166569,-115.245119,,,,
83,83,Alta @ Rancho (E),,36.166048,-115.17183,,,,
84,84,Alta @ Rancho (W),,36.16623,-115.174269,,,,
85,85,Alta @ Roland Wiley (W),,36.16651,-115.27388,,,,
86,86,Alta @ Sam Jonas (W),,36.16664,-115.262008,,,,
92,92,Alta @ Slayton (E),,36.166298,-115.226678,,,,
95,95,Alta @ Torrey Pines (E),,36.166318,-115.232449,,,,
96,96,Alta @ Torrey Pines (W),,36.166519,-115.233698,,,,
97,97,Alta @ Upland (E),,36.16594,-115.21699,,,,
98,98,Alta @ Valley View (E),,36.166149,-115.191449,,,,
100,100,Alta @ Vassar (W),,36.166539,-115.239959,,,,
101,101,Alta @ Vassar (E),,36.16635,-115.240179,,,,
102,102,Alta @ Villa Monterey (W),,36.166609,-115.265078,,,,
103,103,American Pacific @ Gallagher Crest (W),,36.04166,-115.038339,,,,
106,106,American Pacific @ Ocean Spray (W),,36.041619,-115.043739,,,,
114,114,Arizona @ California (W),,35.97832,-114.83457,,,,
126,126,Arville @ Flamingo (N),,36.116099,-115.199289,,,,
127,127,Arville @ Flamingo (S),,36.115008,-115.199539,,,,
128,128,Arville @ Harmon (N),,36.109238,-115.199219,,,,
129,129,Arville @ Harmon (S),,36.10755,-115.199448,,,,
131,131,Arville @ Rochelle (S),,36.111739,-115.199509,,,,
132,132,Arville @ Rochelle (N),,36.113019,-115.199269,,,,
133,133,Arville @ Tompkins (S),,36.104199,-115.199408,,,,
135,135,Arville @ Twain (S),,36.121838,-115.199428,,,,
136,136,Arville @ Viking (S),,36.11937,-115.199479,,,,
137,137,Arville @ Viking (N),,36.119578,-115.199199,,,,
153,153,Dean Martin @ Silverton Hotel (N),DEAN MARTIN DR & FAIRFIELD AV,36.040616,-115.185695,,,,
158,158,Bonanza @ D (W),,36.17739,-115.147649,,,,
159,159,Bonanza @ City Parkway (E),,36.177168,-115.148488,,,,
161,161,Bonanza @ H (W),,36.17729,-115.152709,,,,
162,162,Bonanza @ Nifty Nickel (E),,36.177048,-115.156169,,,,
163,163,Bonanza @ Nifty Nickel (W),,36.177278,-115.155588,,,,
165,165,Bonanza @ 23rd (E),,36.173848,-115.118208,,,,
166,166,Bonanza @ 9th (E),,36.17396,-115.13312,,,,
167,167,Bonanza @ 9th (W),,36.174138,-115.134849,,,,
168,168,Bonanza @ Animal Kindness Vet (W),,36.17404,-115.066878,,,,
171,171,Bonanza @ Bruce (E),,36.17388,-115.12436,,,,
172,172,Bonanza @ Bruce (W),,36.174138,-115.125618,,,,
174,174,Bonanza @ Clarkway (E),,36.17708,-115.166588,,,,
175,175,Bonanza @ Clarkway (W),,36.177258,-115.168088,,,,
176,176,Bonanza @ Clayton (W),,36.174258,-115.03325,,,,
177,177,Bonanza @ Christy (W),,36.174218,-115.053478,,,,
178,178,Bonanza @ Dike (W),,36.17729,-115.173278,,,,
179,179,Bonanza @ Eastern (E),,36.173788,-115.115238,,,,
180,180,Bonanza @ Eastern (W),,36.17413,-115.116708,,,,
183,183,Bonanza @ Hollywood (W),,36.17409,-115.026858,,,,
184,184,Bonanza @ Honolulu (E),,36.17337,-115.092329,,,,
185,185,Bonanza @ Honolulu (W),,36.173618,-115.092979,,,,
187,187,Bonanza @ Hubbard (W),,36.173669,-115.07877,,,,
188,188,Bonanza @ Las Vegas (E),,36.17458,-115.136579,,,,
190,190,Bonanza @ Lamb (E),,36.173378,-115.079578,,,,
191,191,Bonanza @ Lamb (W),,36.17361,-115.081209,,,,
192,192,Bonanza @ Lillian (W),E BONANZA RD & LILLIAN ST,36.173848,-115.06482,,,,
194,194,Bonanza @ Linn (W),,36.17437,-115.049299,,,,
195,195,Bonanza @ MLK (E),,36.177,-115.159749,,,,
196,196,Bonanza @ MLK (W),,36.1772,-115.162147,,,,
197,197,Bonanza @ Magic Forest (W),,36.174508,-115.042729,,,,
199,199,Bonanza @ Main (W),,36.177438,-115.14337,,,,
200,200,Bonanza @ Marion (E),,36.173669,-115.07067,,,,
201,201,Bonanza @ Maryland (E),,36.173948,-115.130079,,,,
202,202,Bonanza @ Maryland (W),,36.174158,-115.131078,,,,
203,203,Bonanza @ McKnight (W),,36.173968,-115.112789,,,,
204,204,Bonanza @ McKnight (W),,36.17368,-115.112118,,,,
205,205,Bonanza @ Memory (W),,36.17448,-115.045629,,,,
206,206,Bonanza @ Mojave (E),,36.17353,-115.10515,,,,
207,207,Bonanza @ Mojave (W),,36.17382,-115.106449,,,,
208,208,Bonanza @ Navajo (W),,36.174218,-115.056829,,,,
210,210,Bonanza @ Nellis (W),,36.17413,-115.063818,,,,
211,211,Bonanza @ Page (E),,36.17353,-115.075248,,,,
212,212,Bonanza @ Pecos (E),,36.17337,-115.097119,,,,
213,213,Bonanza @ Pecos (W),,36.173669,-115.09918,,,,
214,214,Bonanza @ Prescott (W),,36.17394,-115.07011,,,,
215,215,Bonanza @ Rancho (E),,36.177088,-115.173899,,,,
217,217,Bonanza @ Reef (W),,36.17363,-115.095859,,,,
218,218,Bonanza @ Rodney (W),,36.173828,-115.07389,,,,
219,219,Bonanza @ Sandhill (E),,36.173358,-115.088639,,,,
220,220,Bonanza @ Schnitzer (E),,36.17363,-115.10995,,,,
224,224,Bonanza @ Theatre (W),,36.174358,-115.0369,,,,
225,225,Bonanza @ Tonopah (E),,36.17708,-115.169828,,,,
226,226,Bonanza @ Tonopah (W),,36.177258,-115.17062,,,,
227,227,Bonanza @ Trieste (E),,36.17337,-115.085738,,,,
228,228,Bonanza @ Trieste (W),,36.17363,-115.087239,,,,
229,229,Bonanza @ Veterans Memorial (E),,36.175268,-115.138179,,,,
230,230,Bonanza @ Wardelle (W),,36.173908,-115.110109,,,,
231,231,Bonneville @ Main (E),,36.165459,-115.149389,,,,
232,232,Bonneville @ Main (W),,36.166189,-115.15053,,,,
236,236,Boulder @ 4 Mile (S),,36.140619,-115.096048,,,,
237,237,Boulder @ 4380 Boulder (S),,36.12528,-115.078809,,,,
238,238,Boulder @ Boulder (N),,36.117368,-115.06915,,,,
239,239,Boulder @ Century (S),,36.133948,-115.088588,,,,
241,241,Boulder @ Nationwide Homes (S),BOULDER HWY & INDIOS AV,36.117773,-115.070331,,,,
242,242,Boulder @ Railroad Pass (S),,35.97221,-114.91175,,,,
243,243,Boulder @ Sportsman's Lounge (S),,36.098989,-115.049229,,,,
244,244,Boulder @ Basic (N),,36.0353,-114.976878,,,,
245,245,Boulder @ Basic (N),,36.033659,-114.975,,,,
246,246,Boulder @ Basic (S),,36.03253,-114.97451,,,,
247,247,Boulder @ Boulder Station (N),,36.132588,-115.086309,,,,
248,248,Boulder @ College (N),,36.02188,-114.961799,,,,
249,249,Boulder @ College (S),,36.02032,-114.960788,,,,
250,250,Boulder @ Corn (N),,36.060549,-115.005229,,,,
251,251,Boulder @ Corn (S),,36.059669,-115.004999,,,,
252,252,Boulder @ Dalhart (N),,36.14032,-115.094999,,,,
253,253,Boulder @ Desert Horizons (N),,36.089539,-115.037839,,,,
254,254,Boulder @ Desert Horizons (S),,36.088768,-115.037739,,,,
255,255,Boulder @ Desert Inn (S),BOULDER HWY & RAMP US95 N BOUL E,36.130248,-115.084429,,,,
256,256,Boulder @ Elliot (S),,36.067058,-115.013329,,,,
257,257,Boulder @ Emerald (S),,36.08698,-115.03571,,,,
258,258,Boulder @ English (N),,36.098389,-115.047769,,,,
259,259,Boulder @ Flamingo (S),,36.11586,-115.068184,,,,
260,260,Boulder @ Flamingo (N),,36.11553,-115.067069,,,,
261,261,Boulder @ Flamingo (S),,36.114169,-115.066328,,,,
262,262,Boulder @ Foster (S),,36.06217,-115.007829,,,,
263,263,Boulder @ Broadbent (N),,36.07612,-115.022768,,,,
264,264,Boulder @ Gibson (S),,36.075148,-115.022438,,,,
265,265,Boulder @ Glen (N),,36.144949,-115.100219,,,,
267,267,Boulder @ Greenway (S),,36.023648,-114.964509,,,,
268,268,Boulder @ Hamilton (N),,36.092079,-115.040659,,,,
269,269,Boulder @ Harmon (N),,36.108569,-115.059249,,,,
270,270,Boulder @ Harmon (S),,36.107598,-115.058918,,,,
272,272,Boulder @ Indios (N),,36.12195,-115.074328,,,,
273,273,Boulder @ Indios (S),,36.120688,-115.07366,,,,
274,274,Boulder @ Kentucky (S),,36.091119,-115.040398,,,,
275,275,Boulder @ King (N),,36.055399,-114.999429,,,,
276,276,Boulder @ Lake Mead (N),,36.04055,-114.9827,,,,
277,277,Boulder @ Lake Mead (S),,36.038719,-114.981479,,,,
278,278,Boulder @ Lamb (N),,36.13082,-115.084298,,,,
279,279,Boulder @ Lowery (N),,36.042978,-114.985479,,,,
280,280,Boulder @ Lowery (S),,36.041509,-114.984599,,,,
281,281,Boulder @ Magic,,36.003959,-114.942389,,,,
282,282,Boulder @ Magic (N),,36.004989,-114.942839,,,,
283,283,Boulder @ Major (N),,36.03082,-114.971808,,,,
285,285,Boulder @ Mayorga (N),,36.12784,-115.080939,,,,
286,286,Boulder @ Merlayne (N),,36.064069,-115.0092,,,,
287,287,Boulder @ Missouri (N),,36.097129,-115.046339,,,,
288,288,Boulder @ Missouri (S),,36.096209,-115.046099,,,,
289,289,Boulder @ Museum,,36.008178,-114.947099,,,,
290,290,Boulder @ Museum (N),,36.008879,-114.947149,,,,
291,291,Boulder @ Nellis (N),,36.113898,-115.06525,,,,
292,292,Boulder @ Nellis (S),,36.112159,-115.064068,,,,
293,293,Boulder @ Nellis (N),,36.112129,-115.063248,,,,
295,295,Boulder @ Joker's Wild (N),,36.051829,-114.995419,,,,
296,296,Boulder @ Joker's Wild (S),,36.051409,-114.995739,,,,
297,297,Boulder @ Palo Verde (N),,36.025498,-114.965778,,,,
298,298,Boulder @ Roberts (N),,36.002859,-114.940399,,,,
299,299,Boulder @ Roberts,,36.002089,-114.94025,,,,
300,300,Boulder @ Rolly (N),,36.057569,-115.001879,,,,
301,301,Boulder @ Rolly (S),,36.056718,-115.00171,,,,
303,303,Boulder @ Russell (S),,36.084099,-115.032518,,,,
304,304,Boulder @ Sahara (S),,36.145088,-115.101138,,,,
305,305,Boulder @ Sandhill (N),,36.138499,-115.092929,,,,
306,306,Boulder @ Sandhill (S),,36.137779,-115.092898,,,,
307,307,Boulder @ Snap (S),,36.055159,-114.999939,,,,
308,308,Boulder @ Sun Valley (N),,36.107059,-115.057529,,,,
309,309,Boulder @ Arizona Charlies RV (N),,36.124978,-115.077729,,,,
310,310,Boulder @ Sunset (N),,36.066309,-115.011688,,,,
311,311,Boulder @ Sunset (S),,36.065169,-115.01119,,,,
312,312,Boulder @ Texas (S),,36.03526,-114.977578,,,,
313,313,Boulder @ Texas (N),,36.037909,-114.979788,,,,
314,314,Boulder @ Tropicana (N),,36.101489,-115.051279,,,,
315,315,Boulder @ Tropicana (S),,36.100389,-115.050809,,,,
316,316,Boulder @ Twain (S),,36.12269,-115.075908,,,,
317,317,Boulder @ US 95 (N),,36.135728,-115.089859,,,,
318,318,Boulder @ Water (N),,36.046269,-114.98916,,,,
319,319,Boulder @ Water (S),,36.044799,-114.9883,,,,
320,320,Boulder @ Whitney (N),,36.095189,-115.044169,,,,
321,321,Boulder @ Whitney (S),,36.09453,-115.044249,,,,
322,322,Twain @ Boulevard Mall S. Ent. (E),,36.121568,-115.13466,,,,
323,323,Twain @ Boulevard Mall S. Ent. (W),,36.12171,-115.134509,,,,
332,332,Bruce @ Gragson (W),,36.182898,-115.125228,,,,
335,335,Bruce @ Searles (W),,36.18453,-115.12522,,,,
337,337,Bruce @ Washington (N),,36.18287,-115.124978,,,,
338,338,Bruce @ Washington (W),,36.180769,-115.12524,,,,
339,339,Buchanan @ Nevada,,35.97356,-114.845789,,,,
340,340,Buchanan @ Pinata (S),,35.9702,-114.845399,,,,
348,348,Burkholder @ Major (E),,36.037559,-114.966109,,,,
366,366,Carey @ Wal-Mart Super Center (E),,36.202688,-115.190399,,,,
367,367,Carey @ Bassler (E),,36.203149,-115.110988,,,,
368,368,Carey @ Belmont (E),,36.203199,-115.106429,,,,
369,369,Carey @ Belmont (W),,36.203359,-115.107649,,,,
370,370,Carey @ Bruce (E),,36.202979,-115.12454,,,,
371,371,Carey @ Bruce (W),,36.203239,-115.125779,,,,
372,372,Carey @ Civic Center (E),,36.20303,-115.120018,,,,
373,373,Carey @ Civic Center (W),,36.203259,-115.121988,,,,
374,374,Carey @ Clayton (E),,36.202829,-115.169128,,,,
375,375,Carey @ Clayton (W),,36.20309,-115.170419,,,,
376,376,Carey @ Commerce (E),,36.202959,-115.14179,,,,
377,377,Carey @ Commerce (W),,36.203249,-115.143499,,,,
378,378,Carey @ Crawford (W),,36.203319,-115.11094,,,,
380,380,Carey @ Dolly (W),,36.20342,-115.073708,,,,
381,381,Carey @ Donna (E),,36.202969,-115.128939,,,,
382,382,Carey @ Donna (W),,36.203249,-115.13043,,,,
383,383,Carey @ Englestad (W),,36.202989,-115.148029,,,,
384,384,Carey @ Englestad (W),,36.203229,-115.147909,,,,
385,385,Carey @ Valley (W),,36.202939,-115.1962,,,,
386,386,Carey @ Comstock (E),,36.202868,-115.164797,,,,
387,387,Carey @ Kenneth (E),,36.203169,-115.100748,,,,
388,388,Carey @ Kenneth (W),,36.203339,-115.103849,,,,
389,389,Carey @ Las Vegas (E),,36.203078,-115.11767,,,,
390,390,Carey @ Las Vegas (W),,36.203269,-115.118718,,,,
391,391,Carey @ La Salle (E),,36.202999,-115.153429,,,,
393,393,Carey @ Lamb (W),,36.203219,-115.080789,,,,
395,395,Carey @ Lincoln (E),,36.20303,-115.084298,,,,
396,396,Carey @ Lincoln (W),,36.203259,-115.085299,,,,
397,397,Carey @ Losee (W),,36.203239,-115.139359,,,,
398,398,Carey @ Losee (E),,36.202969,-115.138849,,,,
399,399,Carey @ MLK (E),,36.202919,-115.160058,,,,
400,400,Carey @ MLK (W),,36.203139,-115.161719,,,,
401,401,Carey @ Wal-Mart Super Center (W),,36.202949,-115.190319,,,,
402,402,Carey @ North (W),,36.203199,-115.15706,,,,
403,403,Carey @ North (E),,36.202949,-115.156838,,,,
404,404,Carey @ Pecos (E),,36.203139,-115.097569,,,,
405,405,Carey @ Pecos (W),,36.203299,-115.099099,,,,
406,406,Carey @ Fiesta Casino (E),,36.20268,-115.196618,,,,
407,407,Carey @ Revere (E),,36.202999,-115.151379,,,,
408,408,Carey @ Revere (W),,36.203259,-115.153389,,,,
409,409,Carey @ Sandy (E),,36.20311,-115.093519,,,,
410,410,Carey @ Sandy (W),,36.203329,-115.094399,,,,
411,411,Carey @ Sierra Sunrise (E),,36.202419,-115.01925,,,,
412,412,Carey @ Victory Hills (E),,36.202799,-115.17616,,,,
413,413,Carey @ Victory Hills (W),,36.202999,-115.177028,,,,
414,414,Carey @ Walnut (E),,36.20307,-115.088419,,,,
415,415,Carey @ Walnut (W),,36.203299,-115.090039,,,,
416,416,Carey @ Webster (E),,36.20311,-115.114188,,,,
417,417,Carey @ Webster (W),,36.203259,-115.11537,,,,
418,418,Carey @ West (W),,36.20311,-115.16584,,,,
419,419,Carey @ Winning (E),,36.202809,-115.171959,,,,
422,422,Cartier @ West (E),,36.206568,-115.162868,,,,
440,440,Center @ Dogwood (S),,36.046229,-114.967378,,,,
441,441,Center @ Ivy (S),,36.042759,-114.96739,,,,
442,442,Center @ Maple (S),,36.039909,-114.96739,,,,
443,443,Warm Springs @ Center (W),,36.050319,-114.96636,,,,
445,445,Charleston @ 10th (E),,36.158739,-115.140099,,,,
446,446,Charleston @ Gass (W),,36.158979,-115.141819,,,,
447,447,Charleston @ 15th (E),,36.158769,-115.132268,,,,
448,448,Charleston @ 15th (W),,36.159029,-115.133389,,,,
449,449,Charleston @ 17th (E),,36.158769,-115.128209,,,,
450,450,Charleston @ 17th (W),,36.159029,-115.12951,,,,
451,451,Charleston @ 28th (E),,36.158719,-115.111199,,,,
452,452,Charleston @ 28th (W),,36.158979,-115.112399,,,,
453,453,Charleston @ Antelope (E),,36.158999,-115.24993,,,,
454,454,Charleston @ Antelope (W),,36.159258,-115.25176,,,,
455,455,Charleston @ Arden (E),,36.15886,-115.07385,,,,
456,456,Charleston @ Arville (W),,36.159199,-115.200299,,,,
457,457,Charleston @ Betty (W),,36.15933,-115.058389,,,,
458,458,Charleston @ Broadalbin (E),,36.158809,-115.082759,,,,
459,459,Charleston @ Bruce (E),,36.158749,-115.124468,,,,
460,460,Charleston @ Bruce (W),,36.159019,-115.125839,,,,
461,461,Charleston @ Brush (W),,36.15927,-115.21099,,,,
462,462,Charleston @ Brush (E),,36.15896,-115.209859,,,,
463,463,Charleston @ Buffalo (E),,36.158969,-115.261618,,,,
464,464,Charleston @ Cahlan (E),,36.158809,-115.178219,,,,
465,465,Charleston @ Campbell (E),,36.15884,-115.182909,,,,
466,466,Charleston @ Campbell (W),,36.159109,-115.184008,,,,
467,467,Charleston @ Cashman (E),,36.15886,-115.18597,,,,
468,468,Charleston @ Cashman (W),,36.159139,-115.187489,,,,
469,469,Charleston @ Casino Ctr (W),,36.158966,-115.151912,,,,
470,470,Charleston @ Christy (W),,36.159489,-115.054489,,,,
471,471,Charleston @ Community College (E),,36.159049,-115.231879,,,,
472,472,Charleston @ Crestwood (E),,36.158739,-115.120528,,,,
473,473,Charleston @ Decatur (E),,36.15892,-115.204699,,,,
474,474,Charleston @ Decatur (W),,36.159238,-115.2066,,,,
476,476,Charleston @ Desert (E),,36.158759,-115.162358,,,,
477,477,Charleston @ Durango (E),,36.158948,-115.279559,,,,
478,478,Charleston @ Durango (W),,36.159199,-115.280819,,,,
479,479,Charleston @ Eastern (W),,36.159009,-115.119888,,,,
480,480,Charleston @ Faircenter (E),,36.158948,-115.200889,,,,
482,482,Charleston @ Frank (E),,36.15888,-115.067408,,,,
483,483,Charleston @ Fremont (E),,36.158739,-115.115518,,,,
484,484,Charleston @ Hinson (E),,36.158908,-115.194799,,,,
485,485,Charleston @ Hinson (W),,36.159169,-115.196079,,,,
486,486,Charleston @ Honolulu (W),,36.159009,-115.094189,,,,
487,487,Charleston @ Jones (E),,36.159069,-115.22298,,,,
488,488,Charleston @ Jones (W),,36.15935,-115.224958,,,,
489,489,Charleston @ Las Vegas (E),,36.158739,-115.147019,,,,
490,490,Charleston @ Las Vegas (W),,36.158989,-115.148229,,,,
491,491,Charleston @ Lamb (E),,36.15884,-115.07949,,,,
492,492,Charleston @ Lamb (W),,36.159109,-115.08152,,,,
493,493,Charleston @ Linn (W),,36.159549,-115.049949,,,,
494,494,Charleston @ Main (E),,36.158739,-115.153029,,,,
495,495,Charleston @ Marion (W),,36.159129,-115.07321,,,,
496,496,Charleston @ Marion (W),,36.159119,-115.07678,,,,
497,497,Charleston @ Maryland (E),,36.158759,-115.13624,,,,
498,498,Charleston @ Maryland (W),,36.159009,-115.137739,,,,
499,499,Charleston @ Mohawk (E),,36.159029,-115.214348,,,,
500,500,Charleston @ Mohawk (W),,36.15929,-115.215498,,,,
501,501,Charleston @ Mojave (E),,36.158729,-115.10636,,,,
502,502,Charleston @ Mojave (W),,36.158969,-115.106139,,,,
503,503,Charleston @ Nellis (E),,36.15894,-115.06129,,,,
504,504,Charleston @ Nellis (W),,36.159159,-115.06318,,,,
505,505,Charleston @ Oahu (E),,36.158719,-115.09643,,,,
507,507,Charleston @ Odette (W),,36.15921,-115.287579,,,,
508,508,Charleston @ Palm (E),,36.158719,-115.100748,,,,
509,509,Charleston @ Palmhurst (E),,36.158979,-115.25502,,,,
510,510,Charleston @ Palmhurst (W),,36.15925,-115.255689,,,,
511,511,Charleston @ Pecos (W),,36.158979,-115.098659,,,,
512,512,Charleston @ Pecos (W),,36.158989,-115.102049,,,,
513,513,Charleston @ Pleasant Brook (E),,36.159129,-115.056709,,,,
514,514,Charleston @ Prince (W),,36.159049,-115.085818,,,,
515,515,Charleston @ Rainbow (E),,36.158989,-115.242909,,,,
516,516,Charleston @ Rainbow (W),,36.15927,-115.244559,,,,
517,517,Charleston @ Rancho (E),,36.158779,-115.17214,,,,
518,518,Charleston @ Rancho (W),,36.159049,-115.17343,,,,
519,519,Charleston @ Redwood (W),,36.159278,-115.239959,,,,
520,520,Charleston @ Jones (E),,36.159079,-115.226328,,,,
521,521,Charleston @ UNLV Dental (W),,36.159021,-115.162604,,,,
522,522,Charleston @ Sacramento (E),,36.158779,-115.086999,,,,
523,523,Charleston @ Sacramento (W),,36.159029,-115.088329,,,,
524,524,Charleston @ Sandhill (E),,36.158719,-115.09405,,,,
525,525,Charleston @ Scholl (E),,36.159029,-115.236799,,,,
526,526,Charleston @ Shadow (E),,36.158759,-115.164308,,,,
527,527,Charleston @ Shetland (W),,36.159079,-115.178329,,,,
528,528,Charleston @ Slayton (W),,36.15933,-115.227919,,,,
529,529,Charleston @ Sloan (W),,36.159516,-115.04836,,,,
530,530,Charleston @ Tomsik (E),,36.15896,-115.27234,,,,
531,531,Charleston @ Tonopah (W),,36.159059,-115.170648,,,,
532,532,Charleston @ Community College (W),,36.159318,-115.230948,,,,
533,533,Charleston @ Torrey Pines (E),,36.159039,-115.234019,,,,
534,534,Charleston @ Torrey Pines (W),,36.159298,-115.235859,,,,
535,535,Charleston @ Upland (W),,36.15933,-115.22056,,,,
536,536,Charleston @ Valley View (E),,36.158888,-115.191549,,,,
537,537,Charleston @ Valley View (W),,36.159159,-115.192929,,,,
538,538,Charleston @ Warbonnet (E),,36.15896,-115.26641,,,,
539,539,Charleston @ Shiloah (W),,36.158989,-115.096459,,,,
540,540,Charleston @ Westwind (E),,36.159059,-115.21869,,,,
541,541,Charleston @ Pahor (E),,36.158769,-115.168068,,,,
542,542,Charleston @ Westwood (W),,36.159022,-115.166245,,,,
543,543,Charleston @ Yew (W),,36.159149,-115.068558,,,,
544,544,Cheyenne @ 3417 E Cheyenne (E),,36.217528,-115.100209,,,,
545,545,Cheyenne @ Airport Hangar (W),,36.217509,-115.20129,,,,
546,546,Cheyenne @ Airport Hangar (E),,36.217238,-115.201239,,,,
547,547,Cheyenne @ Allen (E),,36.21739,-115.188009,,,,
548,548,Cheyenne @ Allen (W),,36.217648,-115.189489,,,,
549,549,Cheyenne @ Berg (W),,36.217768,-115.113428,,,,
550,550,Cheyenne @ Berg (E),,36.2175,-115.112409,,,,
551,551,Cheyenne @ Bucyrus Erie (E),,36.217588,-115.12994,,,,
552,552,Cheyenne @ Buffalo (W),,36.218408,-115.26118,,,,
553,553,Cheyenne @ California (E),,36.21731,-115.194648,,,,
554,554,Cheyenne @ Cimarron (W),,36.218508,-115.265578,,,,
555,555,Cheyenne @ City View (E),,36.21768,-115.136539,,,,
556,556,Cheyenne @ Civic Center (E),,36.217489,-115.119398,,,,
557,557,Cheyenne @ Clayton (E),,36.21754,-115.169768,,,,
558,558,Cheyenne @ Clayton (W),,36.21782,-115.17097,,,,
559,559,Cheyenne @ Commerce (E),,36.217829,-115.142559,,,,
560,560,Cheyenne @ Commerce (W),,36.218118,-115.143649,,,,
561,561,Cheyenne @ Decatur (E),,36.21717,-115.206818,,,,
562,562,Cheyenne @ Decatur (W),,36.217378,-115.20841,,,,
563,563,Cheyenne @ Marion (W),,36.217859,-115.071828,,,,
564,564,Cheyenne @ Dermody Business (W),,36.217608,-115.07405,,,,
565,565,Cheyenne @ Englestad (E),,36.21801,-115.148259,,,,
566,566,Cheyenne @ Horizon School (E),,36.217788,-115.147099,,,,
567,567,Cheyenne @ Jones (E),,36.216679,-115.224839,,,,
568,568,Cheyenne @ Jones (W),,36.21711,-115.227289,,,,
569,569,Cheyenne @ Lamb (E),,36.217588,-115.07945,,,,
570,570,Cheyenne @ Lamb (W),,36.217859,-115.080748,,,,
571,571,Cheyenne @ Lamont (E),,36.21795,-115.066078,,,,
572,572,Cheyenne @ Lamont (W),,36.218138,-115.067328,,,,
573,573,Cheyenne @ Las Vegas (E),,36.21756,-115.092599,,,,
574,574,Cheyenne @ Losee (W),,36.217849,-115.127898,,,,
575,575,Cheyenne @ MLK (E),,36.21758,-115.16063,,,,
576,576,Cheyenne @ MLK (W),,36.217839,-115.162728,,,,
577,577,Cheyenne @ Mary Dee (W),,36.217808,-115.11828,,,,
578,578,Cheyenne @ Maverick (W),,36.217378,-115.23051,,,,
579,579,Cheyenne @ Michael (E),,36.216888,-115.21627,,,,
580,580,Cheyenne @ Michael (W),,36.21713,-115.21729,,,,
581,581,Cheyenne @ Miramar (W),,36.217069,-115.22179,,,,
582,582,Cheyenne @ 5th (E),,36.217608,-115.133538,,,,
583,583,Cheyenne @ 5th (W),,36.217899,-115.134599,,,,
584,584,Cheyenne @ Nellis (E),,36.218218,-115.06172,,,,
585,585,Cheyenne @ Nellis (W),,36.21844,-115.062918,,,,
586,586,Cheyenne @ Pecos (E),,36.217528,-115.097859,,,,
587,587,Cheyenne @ Pecos (W),,36.2178,-115.099208,,,,
588,588,Cheyenne @ Rainbow (E),,36.21803,-115.241509,,,,
589,589,Cheyenne @ Rainbow (W),,36.21836,-115.243039,,,,
590,590,Cheyenne @ Ramrod (E),,36.217568,-115.236069,,,,
591,591,Cheyenne @ Rancho (E),,36.217049,-115.210978,,,,
592,592,Cheyenne @ Rancho (W),,36.217238,-115.21366,,,,
593,593,Cheyenne @ Sandy (W),,36.217829,-115.094399,,,,
594,594,Cheyenne @ Serene (W),,36.218229,-115.240789,,,,
595,595,Cheyenne @ Simmons (E),,36.21743,-115.1785,,,,
596,596,Cheyenne @ Simmons (W),,36.21774,-115.18004,,,,
597,597,Cheyenne @ Soaring Gulls (W),,36.218698,-115.274788,,,,
598,598,Cheyenne @ Tenaya (E),,36.218058,-115.250718,,,,
599,599,Cheyenne @ Tenaya (W),,36.218388,-115.252099,,,,
600,600,Cheyenne @ Terry (E),,36.2168,-115.220869,,,,
601,601,Cheyenne @ Torrey Pines (E),,36.21735,-115.233379,,,,
602,602,Cheyenne @ Torrey Pines (W),,36.217748,-115.234819,,,,
603,603,Cheyenne @ Trade (E),,36.21768,-115.154068,,,,
604,604,Cheyenne @ Trade (W),,36.21795,-115.155009,,,,
605,605,Cheyenne @ Van Der Meer (E),,36.217528,-115.106618,,,,
606,606,Cheyenne @ Van Der Meer (W),,36.2178,-115.104139,,,,
607,607,Cheyenne @ Campus (W),,36.2178,-115.109639,,,,
608,608,Cheyenne @ Walnut (E),,36.21758,-115.088489,,,,
609,609,Cheyenne @ Walnut (W),,36.217849,-115.09012,,,,
611,611,Cheyenne @ Whispering Willow (E),,36.216948,-115.22854,,,,
615,615,Cimarron @ Carmen (S),,36.185129,-115.269029,,,,
616,616,Cimarron @ Terrace Rock (N),,36.188229,-115.269108,,,,
617,617,Cimarron @ Washington (E),,36.182009,-115.268958,,,,
618,618,Civic Center @ Basswood (S),,36.21661,-115.12112,,,,
619,619,Civic Center @ Brooks (S),,36.2137,-115.121109,,,,
620,620,Civic Center @ Brooks (N),,36.214468,-115.12079,,,,
621,621,Civic Center @ Carey (N),,36.20381,-115.120858,,,,
622,622,Civic Center @ Carey (S),,36.20264,-115.121049,,,,
623,623,Civic Center @ Cartier (N),,36.20703,-115.120898,,,,
624,624,Civic Center @ Cartier (S),,36.206089,-115.12122,,,,
626,626,Civic Center @ Constitution (N),,36.198039,-115.117578,,,,
627,627,Civic Center @ Evans (N),,36.21091,-115.12075,,,,
628,628,Civic Center @ Evans (S),,36.210029,-115.121288,,,,
629,629,Civic Center @ Hickey (N),,36.195129,-115.116138,,,,
630,630,Civic Center @ Las Vegas (N),,36.202629,-115.120648,,,,
631,631,Civic Center @ Las Vegas (S),,36.201359,-115.119938,,,,
632,632,Civic Center @ Lake Mead (N),,36.196539,-115.116338,,,,
633,633,Civic Center @ Lake Mead (S),,36.194809,-115.11646,,,,
635,635,Civic Center @ McDaniel (N),,36.201159,-115.11929,,,,
636,636,Civic Center @ North LV City (S),,36.1987,-115.118768,,,,
637,637,Civic Center @ Owens (N),,36.189099,-115.11601,,,,
639,639,Civic Center @ Tonopah (N),,36.192539,-115.116078,,,,
640,640,Civic Center @ Tonopah (S),,36.191779,-115.1164,,,,
641,641,Civic Center @ Webb (S),,36.189009,-115.116318,,,,
643,643,Clayton @ Carey (N),,36.20344,-115.169708,,,,
644,644,Clayton @ Cartier (N),,36.206299,-115.1698,,,,
650,650,Commerce @ Carey (N),,36.203939,-115.142839,,,,
651,651,Commerce @ Carey (S),,36.202399,-115.143019,,,,
652,652,Commerce @ Duchess (N),,36.206978,-115.142789,,,,
653,653,Commerce @ Duchess (S),,36.206529,-115.142989,,,,
654,654,Commerce @ Miller (N),,36.19989,-115.142849,,,,
655,655,CSN (N),FERRET FALL AV & DUSTY VIEW ST,36.218629,-115.106899,,,,
667,667,Craig @ Allen (E),,36.239229,-115.188699,,,,
668,668,Craig @ Bradley (E),,36.238719,-115.2161,,,,
669,669,Craig @ Calimesa (E),,36.240239,-115.07182,,,,
670,670,Craig @ Ferrell (E),,36.239269,-115.184189,,,,
671,671,Craig @ Ivory (E),,36.238759,-115.218898,,,,
672,672,Craig @ Jones (E),,36.238849,-115.224938,,,,
674,674,Craig @ Lamb (E),,36.240289,-115.07904,,,,
675,675,Craig @ Lamont (W),,36.240629,-115.06689,,,,
676,676,Craig @ Lamont (E),,36.240309,-115.06525,,,,
677,677,Craig @ Marauder (E),,36.240409,-115.05655,,,,
679,679,Craig @ Walmart Super (E),,36.240349,-115.05967,,,,
680,680,Craig @ Puebla (W),,36.240568,-115.071379,,,,
682,682,Craig @ San Mateo (E),,36.238789,-115.20252,,,,
683,683,Craig @ Thom (E),,36.238629,-115.210508,,,,
684,684,Craig @ Nellis (W),,36.240659,-115.062938,,,,
685,685,Craig @ Valley (E),,36.238968,-115.197669,,,,
688,688,Decatur @ Alexander (N),,36.23266,-115.207308,,,,
689,689,Decatur @ Alpine (S),,36.160488,-115.206098,,,,
690,690,Decatur @ Alpine (N),,36.1597,-115.205688,,,,
691,691,Decatur @ Alta (N),,36.16729,-115.205828,,,,
692,692,Decatur @ Alta (S),,36.165698,-115.206218,,,,
693,693,Decatur @ Bonanza (N),,36.17772,-115.205869,,,,
694,694,Decatur @ Bonanza (S),,36.17706,-115.206269,,,,
695,695,Decatur @ Carmen (S),,36.182588,-115.206319,,,,
696,696,Decatur @ Casa Bonita (N),,36.22698,-115.207368,,,,
697,697,Decatur @ Charleston (S),,36.158669,-115.206078,,,,
698,698,Decatur @ Cheyenne (N),,36.217748,-115.20732,,,,
699,699,Decatur @ Avila Park (N),,36.192529,-115.205869,,,,
701,701,Decatur @ Desert Inn (N),,36.13055,-115.207899,,,,
702,702,Decatur @ Desert Inn (S),,36.129388,-115.208299,,,,
703,703,Decatur @ Diamond Head (S),,36.191949,-115.206279,,,,
704,704,Decatur @ Doe (S),,36.153039,-115.208188,,,,
705,705,Decatur @ Edna (S),,36.138099,-115.208339,,,,
706,706,Decatur @ Eldora (N),,36.14186,-115.207949,,,,
707,707,Decatur @ Eldora (S),,36.14038,-115.20835,,,,
709,709,Decatur @ Eugene (N),,36.199699,-115.205708,,,,
710,710,Decatur @ Eugene (S),,36.198489,-115.20611,,,,
711,711,Decatur @ Evergreen (S),,36.162579,-115.20615,,,,
712,712,Decatur @ Faircenter (N),,36.158,-115.205768,,,,
713,713,Decatur @ Flamingo (N),,36.11598,-115.207899,,,,
714,714,Decatur @ Flamingo (S),,36.114388,-115.208319,,,,
715,715,Decatur @ Hayes (N),,36.165029,-115.20582,,,,
716,716,Decatur @ Kansas (S),,36.17548,-115.206239,,,,
717,717,Decatur @ Kansas (N),,36.176388,-115.205859,,,,
718,718,Decatur @ Lake Mead (N),,36.196009,-115.205788,,,,
719,719,Decatur @ Lake Mead (S),,36.194778,-115.206198,,,,
720,720,Decatur @ Meadows (S),,36.169084,-115.206203,,,,
721,721,Decatur @ Mick (N),,36.121098,-115.207968,,,,
722,722,Decatur @ O'Bannon (N),,36.148539,-115.207968,,,,
723,723,Decatur @ O'Bannon (S),,36.147589,-115.208299,,,,
724,724,Decatur @ Oakey (N),,36.152939,-115.20781,,,,
725,725,Decatur @ Oakey (S),,36.151209,-115.20837,,,,
726,726,Decatur @ Palmyra (S),,36.13316,-115.20831,,,,
727,727,Decatur @ Pennwood (N),,36.137839,-115.207929,,,,
728,728,Decatur @ Rancho (N),,36.213519,-115.207758,,,,
730,730,Decatur @ Rancho Rea (N),,36.223758,-115.2074,,,,
731,731,Decatur @ Roberta (N),,36.206039,-115.205459,,,,
733,733,Decatur @ Rochelle (N),,36.11239,-115.207859,,,,
734,734,Decatur @ Rochelle (S),,36.110718,-115.208259,,,,
735,735,Decatur @ Royal Ridge (N),,36.106619,-115.20783,,,,
736,736,Decatur @ Royal Ridge (S),,36.105849,-115.208229,,,,
737,737,Decatur @ Sahara (N),,36.145509,-115.207968,,,,
738,738,Decatur @ Sahara (S),,36.143959,-115.208358,,,,
739,739,Decatur @ San Miguel (N),,36.235788,-115.207388,,,,
740,740,Decatur @ Sirius (N),,36.134438,-115.20792,,,,
741,741,Decatur @ Smoke Ranch (N),,36.203448,-115.205529,,,,
742,742,Decatur @ Smoke Ranch (S),,36.202179,-115.20603,,,,
743,743,Decatur @ Spring Mountain (N),,36.126748,-115.207929,,,,
744,744,Decatur @ Spring Mountain (S),,36.12538,-115.208358,,,,
745,745,Decatur @ Supai (N),,36.11916,-115.20794,,,,
747,747,Decatur @ Tropicana (N),,36.101949,-115.207758,,,,
748,748,Decatur @ Twain (N),,36.123008,-115.20798,,,,
749,749,Decatur @ Twain (S),,36.121898,-115.208378,,,,
750,750,Decatur @ University (N),,36.110489,-115.207849,,,,
751,751,Decatur @ Vegas (N),,36.188669,-115.205949,,,,
752,752,Decatur @ Vegas (S),,36.187399,-115.206388,,,,
753,753,Decatur @ San Andres (S),,36.117269,-115.208319,,,,
754,754,Decatur @ Washington (N),,36.181418,-115.205909,,,,
755,755,Decatur @ Washington (S),,36.18026,-115.206309,,,,
756,756,Decatur @ Westmoreland (N),,36.185429,-115.20597,,,,
757,757,Del Webb @ Mountain Shadows (W),,36.211838,-115.29361,,,,
758,758,Del Webb @ Legend (W),,36.211698,-115.289199,,,,
759,759,Del Webb @ Rampart (W),,36.210299,-115.279349,,,,
760,760,Del Webb @ Sun City (S),,36.210329,-115.298748,,,,
761,761,Del Webb @ Sundial (S),,36.207519,-115.299829,,,,
762,762,Del Webb @ Sungold (S),,36.21089,-115.283519,,,,
763,763,Desert Inn @ 3983 Desert Inn (E),,36.129468,-115.087899,,,,
764,764,Desert Inn @ Ayita (E),,36.129751,-115.122506,,,,
765,765,Desert Inn @ Boulder (E),,36.130638,-115.083119,,,,
766,766,Desert Inn @ Boulder (W),,36.129798,-115.085109,,,,
767,767,Desert Inn @ Brentwood (W),,36.129818,-115.096999,,,,
768,768,Desert Inn @ Burnham (W),,36.13,-115.122518,,,,
769,769,Desert Inn @ Cambridge (E),,36.12965,-115.140709,,,,
771,771,Desert Inn @ Cambridge (W),,36.129909,-115.142219,,,,
772,772,Desert Inn @ Crystal Water (W),,36.129849,-115.289738,,,,
774,774,Desert Inn @ Debbie Reynolds (W),,36.129838,-115.159918,,,,
775,775,Desert Inn @ Eastern (E),,36.12971,-115.117328,,,,
776,776,Desert Inn @ Eastern (W),,36.129968,-115.119378,,,,
777,777,Desert Inn @ Hidden Canyon (W),,36.129928,-115.293439,,,,
778,778,Desert Inn @ Joe W Brown (W),,36.129798,-115.146609,,,,
779,779,Desert Inn @ La Canada (W),,36.12996,-115.132619,,,,
780,780,Desert Inn @ Maryland (E),,36.129658,-115.136059,,,,
781,781,Desert Inn @ Maryland (W),,36.129919,-115.137549,,,,
782,782,Desert Inn @ Mojave (E),,36.129618,-115.104529,,,,
783,783,Desert Inn @ Mojave (W),,36.129899,-115.10593,,,,
784,784,Desert Inn @ Mariner Bay (W),,36.129737,-115.2848,,,,
785,785,Desert Inn @ Paradise (W),,36.12979,-115.155938,,,,
786,786,Desert Inn @ Pawnee (E),,36.129758,-115.127329,,,,
787,787,Desert Inn @ Pawnee (W),,36.129988,-115.130109,,,,
788,788,Desert Inn @ Pecos (E),,36.12959,-115.100589,,,,
789,789,Desert Inn @ Pecos (W),,36.129869,-115.10156,,,,
790,790,Desert Inn @ McLeod (W),,36.129928,-115.110439,,,,
791,791,Desert Inn @ Pecos-McLeod (E),,36.12965,-115.109219,,,,
792,792,Desert Inn @ Sandhill (E),,36.129479,-115.091399,,,,
793,793,Desert Inn @ Sandhill (W),,36.12977,-115.093259,,,,
794,794,Desert Inn @ Sandhill (E),,36.129489,-115.093229,,,,
795,795,Desert Inn @ Seminole (E),,36.12971,-115.131819,,,,
796,796,Desert Inn @ Seneca (W),,36.130008,-115.126398,,,,
797,797,Desert Inn @ Surfline (W),,36.129988,-115.30276,,,,
798,798,Desert Inn @ Swenson (E),,36.129658,-115.144989,,,,
799,799,Desert Inn @ Topaz (E),,36.129678,-115.113589,,,,
800,800,Desert Inn @ Topaz (W),,36.12996,-115.11496,,,,
801,801,Desert Inn @ Ventana Hills (W),,36.129988,-115.298289,,,,
802,802,Desert Inn @ Wayne (E),,36.129538,-115.096169,,,,
824,824,Durango @ Venetian Strada (N),,36.17015,-115.277809,,,,
827,827,Eaker @ 4620 Eaker (S),,36.244421,-115.081729,,,,
828,828,Eastern @ Stewart (N),,36.165578,-115.11568,,,,
829,829,Eastern @ Ballard (N),,36.158088,-115.11874,,,,
830,830,Eastern @ Blue Grass (N),,36.046249,-115.11806,,,,
831,831,Eastern @ Bluegrass (S),,36.045559,-115.118398,,,,
832,832,Eastern @ Bonanza (N),,36.1748,-115.116058,,,,
833,833,Eastern @ Bonanza (S),,36.173,-115.116349,,,,
834,834,Eastern @ Cedar (N),,36.170529,-115.11588,,,,
835,835,Eastern @ Cedar (S),,36.169658,-115.116158,,,,
836,836,Eastern @ Chandler (N),,36.074858,-115.118558,,,,
837,837,Eastern @ Charleston (S),,36.158438,-115.119099,,,,
838,838,Eastern @ Desert Inn (N),,36.13053,-115.118398,,,,
839,839,Eastern @ Desert Inn (S),,36.1292,-115.11876,,,,
840,840,Eastern @ El Dorado (N),,36.053649,-115.1181,,,,
841,841,Eastern @ Emerson (N),,36.12655,-115.118538,,,,
842,842,Eastern @ Flamingo (N),,36.115649,-115.119,,,,
843,843,Eastern @ Flamingo (S),,36.113769,-115.119378,,,,
844,844,Eastern @ Franklin (N),,36.155669,-115.11874,,,,
845,845,Eastern @ Franklin (S),,36.154689,-115.11904,,,,
846,846,Eastern @ Fremont (S),,36.160669,-115.117758,,,,
847,847,Eastern @ Fremont (N),,36.160279,-115.11777,,,,
848,848,Eastern @ Golden Arrow (S),,36.13205,-115.118709,,,,
849,849,Eastern @ Hacienda (N),,36.093549,-115.118718,,,,
850,850,Eastern @ Hacienda (S),,36.092628,-115.119048,,,,
851,851,Eastern @ Harmon (N),,36.107929,-115.1189,,,,
852,852,Eastern @ Harmon (S),,36.10681,-115.119258,,,,
853,853,Eastern @ Harris (N),,36.17858,-115.11597,,,,
854,854,Eastern @ Isabelle (N),,36.163278,-115.11572,,,,
855,855,Eastern @ Karen (S),,36.139849,-115.118868,,,,
856,856,Eastern @ Kirk (S),,36.177639,-115.11633,,,,
857,857,Eastern @ Maule (N),,36.064618,-115.118358,,,,
859,859,Eastern @ Oakey (N),,36.15219,-115.118718,,,,
860,860,Eastern @ Oakey (S),,36.151299,-115.11902,,,,
861,861,Eastern @ Karen (N),,36.141259,-115.118578,,,,
862,862,Eastern @ Oquendo (S),,36.081688,-115.11896,,,,
863,863,Eastern @ Owens (S),,36.188128,-115.116278,,,,
864,864,Eastern @ Palma Vista (S),,36.135918,-115.11878,,,,
865,865,Eastern @ Palora (N),,36.134518,-115.118438,,,,
866,866,Eastern @ Patrick (N),,36.080128,-115.11861,,,,
867,867,Eastern @ Patrick (S),,36.07844,-115.118928,,,,
868,868,Eastern @ Pueblo (S),,36.124468,-115.11896,,,,
869,869,Eastern @ Rawhide (N),,36.09024,-115.118698,,,,
870,870,Eastern @ Rawhide (S),,36.08946,-115.119028,,,,
871,871,Eastern @ Reno (N),,36.097009,-115.118768,,,,
872,872,Eastern @ Reno (S),,36.096158,-115.119099,,,,
873,873,Eastern @ Robindale (S),,36.049059,-115.11835,,,,
874,874,Eastern @ Robindale (N),,36.050079,-115.118028,,,,
875,875,Eastern @ Rochelle (N),,36.111498,-115.119008,,,,
876,876,Eastern @ Rochelle (S),,36.110609,-115.119318,,,,
877,877,Eastern @ Russell (N),,36.085619,-115.118638,,,,
878,878,Eastern @ Russell (S),,36.085608,-115.11902,,,,
879,879,Eastern @ Sahara (N),,36.145349,-115.118618,,,,
880,880,Eastern @ Sahara (S),,36.143589,-115.118988,,,,
881,881,Eastern @ Searles (N),,36.185859,-115.11597,,,,
882,882,Eastern @ Searles (S),,36.184309,-115.116258,,,,
884,884,Eastern @ St Louis (N),,36.148739,-115.11869,,,,
885,885,Eastern @ St Louis (S),,36.147749,-115.118968,,,,
886,886,Eastern @ Stewart (S),,36.165819,-115.115998,,,,
887,887,Eastern @ Sunrise (S),,36.162559,-115.116118,,,,
888,888,Eastern @ Sunset (N),,36.068048,-115.11845,,,,
889,889,Eastern @ Sunset (N),,36.07239,-115.11855,,,,
890,890,Eastern @ Sunset (S),,36.07081,-115.118848,,,,
891,891,Eastern @ Tioga (S),,36.12068,-115.11913,,,,
892,892,Eastern @ Tompkins (N),,36.104349,-115.11888,,,,
893,893,Eastern @ Tropicana (S),,36.102039,-115.11919,,,,
894,894,Eastern @ Tropicana (N),,36.100819,-115.118808,,,,
895,895,Eastern @ Tropicana (S),,36.098979,-115.119119,,,,
896,896,Eastern @ Twain (N),,36.122779,-115.118709,,,,
897,897,Eastern @ Vegas Valley (N),,36.13757,-115.118418,,,,
898,898,Eastern @ Sunrise (N),,36.120039,-115.118828,,,,
899,899,Eastern @ Viking (S),,36.117269,-115.11933,,,,
900,900,Eastern @ Warm Springs Marketplace (S),,36.058589,-115.11855,,,,
901,901,Eastern @ Warm Springs (N),,36.057579,-115.11818,,,,
902,902,Eastern @ Warm Springs (S),,36.0555,-115.11847,,,,
903,903,Eastern @ Washington (N),,36.181939,-115.115908,,,,
904,904,Eastern @ Washington (S),,36.180458,-115.11625,,,,
913,913,Englestad @ Miller (S),,36.201699,-115.147449,,,,
914,914,Englestad @ Van Ert (S),,36.198839,-115.147479,,,,
915,915,Englestad @ Recco (N),,36.196299,-115.147499,,,,
916,916,Englestad @ Lilly (S),,36.199839,-115.147259,,,,
917,917,Flamingo @ Algonquin (W),,36.114758,-115.13509,,,,
918,918,Flamingo @ Annie Oakley (E),,36.114969,-115.087059,,,,
919,919,Flamingo @ Arville (E),,36.115299,-115.198739,,,,
920,920,Flamingo @ Arville (W),,36.115689,-115.20014,,,,
921,921,Flamingo @ Fire Station (E),,36.11438,-115.237019,,,,
922,922,Flamingo @ Baldwin (W),,36.115068,-115.062289,,,,
923,923,Flamingo @ Boulder (W),,36.115068,-115.0682,,,,
924,924,Flamingo @ Broadgate (W),,36.115329,-115.087748,,,,
925,925,Flamingo @ Buffalo (E),,36.114539,-115.260058,,,,
926,926,Flamingo @ Burnham (E),,36.114509,-115.12331,,,,
927,927,Flamingo @ Burnham (W),,36.114829,-115.124609,,,,
928,928,Flamingo @ Calle San Reno (W),,36.115659,-115.204248,,,,
929,929,Flamingo @ Cambridge (W),,36.114829,-115.142939,,,,
930,930,Flamingo @ Cameron (E),,36.115339,-115.203448,,,,
932,932,Flamingo @ Claymont (E),,36.114469,-115.141669,,,,
933,933,Flamingo @ Decatur (E),,36.115329,-115.207469,,,,
934,934,Flamingo @ Decatur (W),,36.11555,-115.209708,,,,
935,935,Flamingo @ Delos (W),,36.115438,-115.211658,,,,
936,936,Flamingo @ Don Bonito (E),,36.114819,-115.079679,,,,
937,937,Flamingo @ Duneville (E),,36.114638,-115.2198,,,,
938,938,Flamingo @ Duneville (W),,36.114889,-115.221198,,,,
940,940,Flamingo @ Eastern (E),,36.114539,-115.118308,,,,
941,941,Flamingo @ Eastern (W),,36.114849,-115.11978,,,,
942,942,Flamingo @ Edmond (E),,36.11512,-115.211518,,,,
943,943,Flamingo @ El Camino (E),,36.11438,-115.229089,,,,
944,944,Flamingo @ El Camino (W),,36.114698,-115.230289,,,,
945,945,Flamingo @ Eucalyptus (E),,36.114758,-115.112748,,,,
946,946,Flamingo @ Tuscany (E),,36.114248,-115.16087,,,,
947,947,Flamingo @ General Dodge (W),,36.115168,-115.059159,,,,
948,948,Flamingo @ Grace (E),,36.114809,-115.07707,,,,
949,949,Flamingo @ Hildebrand (E),,36.114939,-115.10589,,,,
950,950,Flamingo @ Hotel Rio (W),,36.115578,-115.187839,,,,
951,951,Flamingo @ Howard Hughes (W),,36.114579,-115.159688,,,,
952,952,Flamingo @ Jimmy Durante (W),,36.11496,-115.051999,,,,
953,953,Flamingo @ Jones (E),,36.114408,-115.223848,,,,
954,954,Flamingo @ Jones (W),,36.11469,-115.226399,,,,
955,955,Flamingo @ Koval (E),,36.114328,-115.16303,,,,
956,956,Flamingo @ Koval (W),,36.11467,-115.164968,,,,
957,957,Flamingo @ Las Vegas (E),,36.114499,-115.171918,,,,
958,958,Flamingo @ Las Vegas (W),,36.114869,-115.17405,,,,
959,959,Flamingo @ Lindell (E),,36.114859,-115.2159,,,,
960,960,Flamingo @ Lindell (W),,36.115108,-115.21738,,,,
961,961,Flamingo @ Maryland (E),,36.114419,-115.136288,,,,
962,962,Flamingo @ Maryland (W),,36.11477,-115.138779,,,,
963,963,Flamingo @ Mountain Vista (W),,36.11508,-115.07194,,,,
964,964,Flamingo @ Mountain Vista (E),,36.114798,-115.072928,,,,
965,965,Flamingo @ Nellis (W),,36.115028,-115.06533,,,,
966,966,Flamingo @ CC Housing Authority (W),,36.115229,-115.057639,,,,
967,967,Flamingo @ New Forest (E),,36.114509,-115.256568,,,,
968,968,Flamingo @ Palo Verde (E),,36.11461,-115.1501,,,,
969,969,Flamingo @ Palo Verde (W),,36.114869,-115.151179,,,,
970,970,Flamingo @ Paradise (E),,36.11426,-115.15287,,,,
971,971,Flamingo @ Paradise (W),,36.114449,-115.155069,,,,
972,972,Flamingo @ Hospitality (E),,36.114169,-115.15638,,,,
973,973,Flamingo @ Pearl (W),,36.115438,-115.097129,,,,
974,974,Flamingo @ Pecos (E),,36.1151,-115.100039,,,,
975,975,Flamingo @ Pecos (W),,36.115359,-115.102429,,,,
976,976,Flamingo @ Pinecrest (E),,36.115128,-115.093719,,,,
978,978,Flamingo @ Rainbow (E),,36.114388,-115.242018,,,,
979,979,Flamingo @ Ravenwood (E),,36.114419,-115.248429,,,,
980,980,Flamingo @ Redwood (W),,36.11471,-115.239669,,,,
981,981,Flamingo @ Sandalwood (W),,36.114678,-115.24794,,,,
982,982,Flamingo @ Sandhill (E),,36.115088,-115.090939,,,,
983,983,Flamingo @ Sandhill (W),,36.115458,-115.093069,,,,
984,984,Flamingo @ Seville (W),,36.115068,-115.079928,,,,
985,985,Flamingo @ Sheppard (E),,36.114798,-115.068278,,,,
986,986,Flamingo @ Snug Harbor (W),,36.11508,-115.113229,,,,
987,987,Flamingo @ Spencer (E),,36.114469,-115.127958,,,,
988,988,Flamingo @ Spencer (W),,36.114798,-115.129968,,,,
989,989,Flamingo @ Spring Leaf (W),,36.11465,-115.244169,,,,
990,990,Flamingo @ Swenson (E),,36.114539,-115.145779,,,,
991,991,Flamingo @ Swenson (W),,36.114899,-115.147149,,,,
992,992,Flamingo @ Tamarus (E),,36.114439,-115.132209,,,,
993,993,Flamingo @ Tenaya (E),,36.114429,-115.251028,,,,
994,994,Flamingo @ Torrey Pines (E),,36.11438,-115.233379,,,,
995,995,Flamingo @ Torrey Pines (W),,36.11471,-115.234498,,,,
996,996,Flamingo @ Valley View (E),,36.11539,-115.189479,,,,
997,997,Flamingo @ Gold Coast (W),,36.115719,-115.192899,,,,
1000,1000,Flamingo @ Wynn (E),,36.115359,-115.193619,,,,
1001,1001,Flamingo @ Wynn (W),,36.115719,-115.195259,,,,
1010,1010,Fremont @ 21st (N),,36.16171,-115.12288,,,,
1011,1011,Fremont @ 15th (S),,36.164466,-115.12978,,,,
1012,1012,Fremont @ 15th (N),,36.16473,-115.129859,,,,
1013,1013,Fremont @ 21st (S),,36.160388,-115.120328,,,,
1014,1014,Fremont @ 9th (S),,36.16703,-115.135749,,,,
1015,1015,Fremont @ 9th (N),,36.1675,-115.136349,,,,
1016,1016,Fremont @ Lowes (S),,36.15494,-115.112197,,,,
1017,1017,Fremont @ Lowes Home Imp (N),,36.15533,-115.111948,,,,
1018,1018,Fremont @ Atlantic (N),,36.157849,-115.11512,,,,
1019,1019,Fremont @ Atlantic (S),,36.1565,-115.11406,,,,
1020,1020,Fremont @ Bruce (S),,36.162179,-115.124508,,,,
1021,1021,Fremont @ Bruce (N),,36.16284,-115.125469,,,,
1022,1022,Fremont @ Charleston (N),,36.15929,-115.11716,,,,
1023,1023,Fremont @ Eastern (S),,36.159359,-115.117968,,,,
1024,1024,Fremont @ Eastern (N),,36.160138,-115.119198,,,,
1025,1025,Fremont @ Maryland (S),,36.16555,-115.132308,,,,
1026,1026,Fremont @ Maryland (N),,36.1661,-115.1331,,,,
1029,1029,Fremont @ Oakey (N),,36.152349,-115.108549,,,,
1030,1030,Fremont @ Oakey (S),,36.151259,-115.108099,,,,
1031,1031,Fremont @ Sahara (N),,36.146349,-115.101809,,,,
1033,1033,Fremont @ St Louis (N),,36.149189,-115.10501,,,,
1034,1034,Fremont @ St Louis (S),,36.148179,-115.10464,,,,
1035,1035,Sky Pointe @ Eagle Crest (N),,36.26803,-115.257348,,,,
1036,1036,Gibson @ 260 Gibson (W),,36.048299,-115.02888,,,,
1037,1037,Gibson @ 260 Gibson (E),,36.047669,-115.029258,,,,
1038,1038,Gibson @ American Pacific (W),,36.042729,-115.029088,,,,
1039,1039,Gibson @ Auto Show (W),,36.045739,-115.02898,,,,
1040,1040,Gibson @ Auto Show (E),,36.044669,-115.029378,,,,
1041,1041,Gibson @ Villa Serena (W),,36.051159,-115.028749,,,,
1042,1042,Gibson @ Villa Serena (E),,36.050649,-115.029139,,,,
1045,1045,Gowan @ Rio Robles (E),,36.224998,-115.102039,,,,
1046,1046,Grand Canyon @ Desert Inn (N),,36.130452,-115.306145,,,,
1047,1047,Grand Canyon @ Great Bend (W),,36.132239,-115.30645,,,,
1048,1048,Grand Canyon @ Mariner Cove (N),,36.136599,-115.305815,,,,
1049,1049,Grand Canyon @ Lake North (W),,36.140328,-115.30606,,,,
1056,1056,Green Valley @ High View (S),,36.066608,-115.08259,,,,
1057,1057,Green Valley @ La Mancha (S),,36.058579,-115.085078,,,,
1059,1059,Green Valley @ La Mesa (S),,36.063299,-115.084319,,,,
1063,1063,Green Valley @ Lone Pine (S),,36.060159,-115.085159,,,,
1064,1064,Green Valley @ Pacific Island (S),,36.051589,-115.082658,,,,
1066,1066,Green Valley @ Robindale (S),,36.048559,-115.08259,,,,
1068,1068,Green Valley @ Sunset (S),,36.070349,-115.082598,,,,
1069,1069,Green Valley @ Warm Springs (S),,36.05591,-115.084089,,,,
1078,1078,Harmon @ Boulder (E),,36.108748,-115.05807,,,,
1081,1081,Harmon @ Burnham (E),,36.107319,-115.123378,,,,
1082,1082,Harmon @ Burnham (W),,36.107559,-115.124189,,,,
1085,1085,Harmon @ Eastern (E),,36.107228,-115.11812,,,,
1086,1086,Harmon @ Eastern (W),,36.107449,-115.12001,,,,
1091,1091,Harmon @ Euclid (W),,36.107459,-115.11728,,,,
1093,1093,Harmon @ Harrison (E),,36.107339,-115.111498,,,,
1094,1094,Harmon @ Jimmy Durante (W),,36.11028,-115.052089,,,,
1096,1096,Harmon @ Maryland (E),,36.107639,-115.136289,,,,
1101,1101,Harmon @ Paseo El Rio (E),,36.10755,-115.11211,,,,
1105,1105,Harmon @ Pecos (W),,36.107719,-115.101339,,,,
1107,1107,Harmon @ Sands Point (W),,36.10763,-115.10745,,,,
1108,1108,Harmon @ Spencer (E),,36.107429,-115.127548,,,,
1112,1112,Harmon @ Topaz (E),,36.107289,-115.113778,,,,
1117,1117,Hillpointe @ Broadleaf (E),,36.198389,-115.297389,,,,
1118,1118,Hillpointe @ Glenside (E),,36.198199,-115.290369,,,,
1119,1119,Hillpointe @ Hills Center (E),,36.198109,-115.300038,,,,
1120,1120,Hillpointe @ Pinewood Hills (E),,36.199509,-115.293509,,,,
1121,1121,Hills Center @ Hillpointe (S),,36.197819,-115.30071,,,,
1122,1122,Hills Center @ Lake Mead (S),,36.2019,-115.300629,,,,
1123,1123,Hills Center @ Lake Mead (S),,36.205559,-115.300018,,,,
1126,1126,Owens @ Lamb (W),,36.188629,-115.0806,,,,
1127,1127,Washington @ D (W),,36.181,-115.147459,,,,
1132,1132,Horizon @ Arrowhead (E),,36.01254,-114.958079,,,,
1133,1133,Horizon @ Arrowhead (W),,36.012819,-114.959649,,,,
1134,1134,Horizon @ Blackridge (W),,36.012689,-114.986119,,,,
1135,1135,Horizon @ Canyon (E),,36.012429,-114.9827,,,,
1136,1136,Horizon @ College (E),,36.012508,-114.961958,,,,
1137,1137,Horizon @ College (W),,36.012819,-114.964139,,,,
1138,1138,Horizon @ Greenway (E),,36.012461,-114.976345,,,,
1139,1139,Horizon @ Greenway (W),,36.012719,-114.977168,,,,
1140,1140,Horizon @ Mona (W),,36.012739,-114.968158,,,,
1141,1141,Horizon @ Mosswood (E),,36.012488,-114.967008,,,,
1142,1142,Horizon @ Sierra (E),,36.01246,-114.972198,,,,
1143,1143,Horizon @ Sierra (W),,36.012719,-114.973528,,,,
1144,1144,Horizon @ Skyline (E),,36.012429,-114.98071,,,,
1145,1145,Horizon @ Skyline (W),,36.012699,-114.981469,,,,
1146,1146,Horizon @ Sunny Slope (E),,36.012419,-114.986139,,,,
1147,1147,Industrial @ 3001 Industrial (N),,36.135719,-115.170218,,,,
1149,1149,Industrial @ Circus Circus (N),,36.139799,-115.16738,,,,
1150,1150,Industrial @ Circus Circus (S),,36.139178,-115.168188,,,,
1151,1151,Mel Torme @ Industrial (E),,36.12614,-115.174679,,,,
1153,1153,Industrial @ South Bridge (S),,36.143039,-115.165669,,,,
1154,1154,Industrial @ Sapphire (S),,36.134438,-115.171428,,,,
1155,1155,Industrial @ Fashion Show Mall (N),,36.12743,-115.175529,,,,
1158,1158,Industrial @ Stardust (N),,36.132738,-115.172168,,,,
1159,1159,Industrial @ Stardust (N),,36.130649,-115.173539,,,,
1160,1160,Industrial @ Stardust (S),,36.13113,-115.173589,,,,
1168,1168,Jones @ Alfred (N),,36.207719,-115.22431,,,,
1169,1169,Jones @ Alta (N),,36.16686,-115.223689,,,,
1170,1170,Jones @ Alta (S),,36.165948,-115.223908,,,,
1171,1171,Jones @ Carl (N),,36.192458,-115.223868,,,,
1172,1172,Jones @ Carl (S),,36.191739,-115.224158,,,,
1173,1173,Jones @ Carmen (N),,36.185019,-115.223848,,,,
1174,1174,Jones @ Carmen (S),,36.184248,-115.224079,,,,
1175,1175,Jones @ Cartier (S),,36.20574,-115.224278,,,,
1176,1176,Jones @ Charleston (N),,36.160528,-115.2238,,,,
1177,1177,Jones @ Charleston (S),,36.158619,-115.224109,,,,
1178,1178,Jones @ Chelsea (N),,36.17579,-115.223928,,,,
1179,1179,Jones @ Cheyenne (S),,36.21631,-115.22589,,,,
1180,1180,Jones @ Churchfield (N),,36.105919,-115.224839,,,,
1181,1181,Jones @ Churchfield (S),,36.104899,-115.225169,,,,
1182,1182,Jones @ Palmyra (N),,36.133665,-115.22485,,,,
1183,1183,Jones @ Dayton (S),,36.16935,-115.224049,,,,
1184,1184,Jones @ Denver (S),,36.17624,-115.224198,,,,
1185,1185,Jones @ Desert Inn (N),,36.129911,-115.224801,,,,
1186,1186,Jones @ Desert Inn (S),,36.128238,-115.225149,,,,
1187,1187,Jones @ Edna (S),,36.135728,-115.225289,,,,
1188,1188,Jones @ Eldora (S),,36.139379,-115.225368,,,,
1189,1189,Jones @ Elton (S),,36.1716,-115.22419,,,,
1190,1190,Jones @ Eugene (N),,36.198979,-115.223709,,,,
1191,1191,Jones @ Eugene (S),,36.198059,-115.223999,,,,
1192,1192,Jones @ Evergreen (N),,36.16362,-115.223748,,,,
1193,1193,Jones @ Evergreen (S),,36.16237,-115.223988,,,,
1194,1194,Jones @ Fairwood (N),,36.17111,-115.22392,,,,
1195,1195,Jones @ Flamingo (N),,36.11549,-115.224748,,,,
1196,1196,Jones @ Flamingo (S),,36.113858,-115.22507,,,,
1198,1198,Jones @ Granada (N),,36.17893,-115.22382,,,,
1199,1199,Jones @ Gunderson (S),,36.109689,-115.225118,,,,
1200,1200,Jones @ Harmon (S),,36.106428,-115.225149,,,,
1201,1201,Jones @ Heather Mist (N),,36.215018,-115.225408,,,,
1202,1202,Jones @ Heather Mist (S),,36.214249,-115.225559,,,,
1203,1203,Jones @ Lake Mead (N),,36.196489,-115.223768,,,,
1204,1204,Jones @ Lake Mead (S),,36.195299,-115.224059,,,,
1205,1205,Jones @ Eldora (N),,36.140915,-115.225041,,,,
1208,1208,Jones @ O'Bannon (S),,36.148149,-115.225619,,,,
1209,1209,Jones @ O'Bannon (N),,36.148769,-115.225319,,,,
1210,1210,Jones @ Oakey (N),,36.152309,-115.225468,,,,
1211,1211,Jones @ Oakey (S),,36.151479,-115.22577,,,,
1212,1212,Jones @ Palmyra (S),,36.132309,-115.225209,,,,
1213,1213,Jones @ Paseo Del Mar (N),,36.213129,-115.22513,,,,
1214,1214,Jones @ Paseo Montana (S),,36.20978,-115.224889,,,,
1215,1215,Jones @ Rochelle (N),,36.111779,-115.224768,,,,
1217,1217,Jones @ Sahara (N),,36.145289,-115.225189,,,,
1218,1218,Jones @ Sahara (S),,36.143689,-115.22544,,,,
1219,1219,Jones @ Sheila (N),,36.21017,-115.22468,,,,
1220,1220,Jones @ Smoke Ranch (N),,36.20342,-115.223669,,,,
1221,1221,Jones @ Smoke Ranch (S),,36.202499,-115.22388,,,,
1222,1222,Jones @ Spring Mountain (N),,36.125968,-115.224809,,,,
1223,1223,Jones @ Spring Mountain (S),,36.124608,-115.225118,,,,
1224,1224,Jones @ Edna (N),,36.137174,-115.224957,,,,
1225,1225,Jones @ Transverse (N),,36.157268,-115.224358,,,,
1226,1226,Jones @ Transverse (S),,36.156369,-115.225569,,,,
1227,1227,Jones @ Tropicana (N),,36.100809,-115.224899,,,,
1228,1228,Jones @ Tropicana (S),,36.101499,-115.225219,,,,
1230,1230,Jones @ Twain (S),,36.12122,-115.225098,,,,
1231,1231,Jones @ Twain (N),,36.12234,-115.224789,,,,
1232,1232,Jones @ Vegas (N),,36.189079,-115.223948,,,,
1233,1233,Jones @ Vegas (S),,36.187939,-115.224178,,,,
1234,1234,Jones @ Viking (N),,36.118678,-115.224748,,,,
1235,1235,Jones @ Viking (S),,36.1175,-115.22509,,,,
1237,1237,Jones @ Washington (N),,36.18186,-115.22376,,,,
1238,1238,Jones @ Washington (S),,36.18028,-115.223988,,,,
1247,1247,Koval @ Days Inn (S),,36.11194,-115.164148,,,,
1248,1248,Koval @ Flamingo (N),,36.115148,-115.16391,,,,
1249,1249,Koval @ Flamingo (S),,36.113938,-115.16422,,,,
1250,1250,Koval @ Harmon (N),,36.108679,-115.163838,,,,
1251,1251,Koval @ Harmon (S),,36.107439,-115.1641,,,,
1252,1252,Koval @ Reno (N),,36.098679,-115.163699,,,,
1253,1253,Koval @ Rochelle (N),,36.11227,-115.163878,,,,
1254,1254,Koval @ Sands (S),,36.12177,-115.164288,,,,
1255,1255,Koval @ Tompkins (N),,36.104759,-115.163778,,,,
1256,1256,Koval @ Tompkins (S),,36.104048,-115.16405,,,,
1257,1257,Koval @ Tropicana (N),,36.101819,-115.16375,,,,
1258,1258,Koval @ Tropicana (S),,36.100259,-115.164018,,,,
1259,1259,Koval @ Westchester (N),,36.11957,-115.16395,,,,
1260,1260,Koval @ Westchester (S),,36.118988,-115.164208,,,,
1261,1261,Koval @ Winnick (S),,36.11695,-115.1642,,,,
1262,1262,Las Vegas @ Shelbourne (S),,36.038379,-115.17214,,,,
1266,1266,Las Vegas @ Belmont (S),,36.209808,-115.107188,,,,
1268,1268,Las Vegas @ Bonanza (S),,36.17583,-115.136698,,,,
1269,1269,Las Vegas @ Bonanza (N),,36.175508,-115.136579,,,,
1273,1273,Las Vegas @ Cashman (S),,36.17821,-115.135359,,,,
1274,1274,Las Vegas @ Cashman (N),,36.178712,-115.134812,,,,
1275,1275,Las Vegas @ Cheyenne (N),,36.21852,-115.091708,,,,
1281,1281,Las Vegas @ Walmart (S),,36.238269,-115.05852,,,,
1284,1284,Las Vegas @ Foremaster (S),,36.186878,-115.134209,,,,
1291,1291,Las Vegas @ Hitchin Post (N),,36.223438,-115.083209,,,,
1293,1293,Las Vegas @ Lake Mead (S),,36.19477,-115.130298,,,,
1299,1299,Las Vegas @ Main (S),,36.189349,-115.134199,,,,
1300,1300,Las Vegas @ McCarran (N),,36.205969,-115.113158,,,,
1301,1301,Las Vegas @ McCarran (S),,36.20668,-115.11256,,,,
1302,1302,Las Vegas @ Mesquite (S),,36.17292,-115.138589,,,,
1307,1307,Las Vegas @ Owens (N),,36.1889,-115.13394,,,,
1308,1308,Las Vegas @ Pecos (N),,36.21483,-115.09801,,,,
1310,1310,Las Vegas @ Puebla (N),,36.2311,-115.070198,,,,
1311,1311,Las Vegas @ Puebla (S),,36.23075,-115.071458,,,,
1314,1314,Las Vegas @ Silver Nugget (S),,36.199539,-115.12454,,,,
1315,1315,Las Vegas @ Silver Nugget (N),,36.199189,-115.12452,,,,
1316,1316,Las Vegas @ Stewart (N),,36.172128,-115.138668,,,,
1318,1318,Las Vegas @ Tonopah (N),,36.192719,-115.13199,,,,
1326,1326,Las Vegas @ Washington (S),,36.182009,-115.134209,,,,
1328,1328,Las Vegas @ Agate (N),,36.02522,-115.17212,,,,
1329,1329,Las Vegas @ Agate (S),,36.024209,-115.17255,,,,
1331,1331,Las Vegas @ Sky Condominiums (S),,36.138589,-115.160899,,,,
1332,1332,Las Vegas @ Paris (N),,36.112099,-115.172709,,,,
1335,1335,Las Vegas @ Moberly (S),,36.047819,-115.17249,,,,
1337,1337,Las Vegas @ Bonneville (S),,36.163178,-115.144779,,,,
1339,1339,Las Vegas @ Caesars Palace (S),,36.11785,-115.173068,,,,
1340,1340,Las Vegas @ Cathedral (N),,36.131724,-115.165018,,,,
1343,1343,Las Vegas @ Charleston (S),,36.157869,-115.148239,,,,
1344,1344,Las Vegas @ Circus Circus (S),,36.13562,-115.162828,,,,
1345,1345,Washington @ Buffalo (E),,36.181298,-115.259179,,,,
1346,1346,Las Vegas @ Riviera (N),,36.135548,-115.162478,,,,
1348,1348,Las Vegas @ Four Seasons (N),,36.090359,-115.172618,,,,
1349,1349,Las Vegas @ Turnberry Place (N),,36.137709,-115.161068,,,,
1351,1351,Las Vegas @ Excalibur (S),,36.099799,-115.17323,,,,
1352,1352,Las Vegas @ Vegas Pointe (S),,36.021578,-115.17255,,,,
1353,1353,Las Vegas @ Wynn (N),,36.126912,-115.168135,,,,
1354,1354,Las Vegas @ Fashion Show Mall (S),,36.126268,-115.16902,,,,
1356,1356,Las Vegas @ Flamingo (N),,36.116849,-115.172678,,,,
1358,1358,Las Vegas @ Fremont (S),,36.16953,-115.140609,,,,
1360,1360,Las Vegas @ Encore Hotel & Casino (S),,36.128878,-115.167229,,,,
1363,1363,Las Vegas @ Luxor (N),,36.094419,-115.17263,,,,
1364,1364,Las Vegas @ Mandalay Bay (S),,36.092938,-115.173179,,,,
1366,1366,Las Vegas @ Planet Hollywood Hotel (N),,36.109639,-115.172658,,,,
1368,1368,Las Vegas @ Hoover (S),,36.159668,-115.147069,,,,
1369,1369,Las Vegas @ Hughes Exec. Terminal (S),,36.07996,-115.17296,,,,
1370,1370,Las Vegas @ Hughes Exec. Terminal (N),,36.08021,-115.172419,,,,
1371,1371,Las Vegas @ MGM/Showcase (N),,36.102649,-115.172598,,,,
1372,1372,Las Vegas @ Bali Hai (S),,36.082858,-115.17302,,,,
1373,1373,Las Vegas @ Russell (N),,36.083339,-115.17253,,,,
1374,1374,Las Vegas @ Clark (S),,36.164969,-115.143679,,,,
1375,1375,Las Vegas @ Luxor (S),,36.094879,-115.173199,,,,
1376,1376,Las Vegas @ Mirage (S),,36.120255,-115.172551,,,,
1377,1377,Las Vegas @ Venetian (N),,36.12286,-115.170829,,,,
1378,1378,Las Vegas @ Monte Carlo (S),,36.104759,-115.173298,,,,
1380,1380,Las Vegas @ Oakey (S),,36.15098,-115.15277,,,,
1381,1381,Las Vegas @ Oakey (N),,36.150929,-115.15244,,,,
1383,1383,Las Vegas @ Pebble (N),,36.028928,-115.172188,,,,
1384,1384,Las Vegas @ Pebble (S),,36.02773,-115.172558,,,,
1385,1385,Las Vegas @ Post (N),,36.07506,-115.172359,,,,
1386,1386,Las Vegas @ Post (S),,36.07477,-115.17286,,,,
1389,1389,Las Vegas @ Russell (S),,36.08544,-115.17308,,,,
1391,1391,Las Vegas @ Sahara (N),,36.144069,-115.156939,,,,
1392,1392,Las Vegas @ Sahara (S),,36.142479,-115.15841,,,,
1394,1394,Las Vegas @ Shelbourne (S),,36.038399,-115.17255,,,,
1395,1395,Las Vegas @ Convention Center (N),,36.13324,-115.16401,,,,
1397,1397,Las Vegas @ St Louis (N),,36.149089,-115.153598,,,,
1398,1398,Las Vegas @ Convention Center (S),,36.131869,-115.165318,,,,
1400,1400,Las Vegas @ Stratosphere (S),,36.148059,-115.154659,,,,
1401,1401,Las Vegas @ Stratosphere (N),,36.146688,-115.155218,,,,
1403,1403,Las Vegas @ Treasure Island (S),,36.12284,-115.171368,,,,
1405,1405,Las Vegas @ Tropicana (N),,36.099309,-115.172698,,,,
1406,1406,Las Vegas @ Warm Springs (S),,36.056519,-115.172558,,,,
1407,1407,Las Vegas @ Hilton Grand Vac. (N),,36.140229,-115.159429,,,,
1408,1408,Las Vegas @ Hilton Grand Vac. (S),,36.140259,-115.159838,,,,
1409,1409,Las Vegas @ Wigwam (N),S LAS VEGAS BLVD & W SHELBOURNE AV,36.036029,-115.172168,,,,
1410,1410,Las Vegas @ Wigwam (S),,36.036148,-115.17255,,,,
1411,1411,Las Vegas @ Windmill (N),,36.043605,-115.172186,,,,
1412,1412,Las Vegas @ Blue Diamond (S),,36.041768,-115.172558,,,,
1416,1416,Lake Mead @ D (E),,36.195598,-115.146689,,,,
1417,1417,Lake Mead @ H (E),,36.195578,-115.151059,,,,
1418,1418,Lake Mead @ J (E),,36.195609,-115.155789,,,,
1419,1419,Lake Mead @ 5th (W),,36.197029,-115.134409,,,,
1420,1420,Lake Mead @ San Simeon (E),,36.195669,-115.226578,,,,
1421,1421,Lake Mead @ Arpa (W),,36.195939,-115.227478,,,,
1422,1422,Lake Mead @ Bangle (W),,36.195879,-115.144109,,,,
1423,1423,Lake Mead @ Beesley (E),,36.195939,-115.039159,,,,
1424,1424,Lake Mead @ Belmont (W),,36.196039,-115.106519,,,,
1425,1425,Lake Mead @ Belmont (E),,36.195769,-115.10632,,,,
1426,1426,Lake Mead @ Betty (E),,36.196109,-115.057099,,,,
1427,1427,Lake Mead @ Betty (W),,36.196378,-115.058098,,,,
1429,1429,Lake Mead @ N. Vista Hospital (E),,36.195689,-115.12327,,,,
1430,1430,Lake Mead @ Bruce (W),,36.195929,-115.125809,,,,
1431,1431,Lake Mead @ Buffalo (E),,36.195979,-115.258658,,,,
1432,1432,Lake Mead @ Buffalo (W),,36.196429,-115.261949,,,,
1433,1433,Lake Mead @ Christy (E),,36.196109,-115.051979,,,,
1434,1434,Lake Mead @ Christy (W),,36.196378,-115.053279,,,,
1435,1435,Lake Mead @ Civic Center (E),,36.195739,-115.115688,,,,
1436,1436,Lake Mead @ Civic Center (W),,36.195979,-115.11703,,,,
1437,1437,Lake Mead @ Losee (E),,36.195639,-115.142299,,,,
1438,1438,Lake Mead @ Comstock (W),,36.195869,-115.165768,,,,
1439,1439,Lake Mead @ Comstock (E),,36.195598,-115.16526,,,,
1440,1440,Lake Mead @ Concord (W),,36.195849,-115.157069,,,,
1441,1441,Lake Mead @ McCarran (E),,36.195729,-115.111788,,,,
1444,1444,Lake Mead @ Decatur (E),,36.195419,-115.205069,,,,
1445,1445,Lake Mead @ Decatur (W),,36.195639,-115.20662,,,,
1446,1446,Lake Mead @ Dolly (E),,36.195679,-115.074308,,,,
1447,1447,Lake Mead @ Dolly (W),,36.195889,-115.076178,,,,
1448,1448,Lake Mead @ Englestad (W),,36.195859,-115.147889,,,,
1449,1449,Lake Mead @ Glacier (W),,36.196239,-115.041029,,,,
1450,1450,Lake Mead @ Harbor Island (W),,36.198249,-115.279419,,,,
1452,1452,Lake Mead @ Hollywood (W),,36.195779,-115.027018,,,,
1453,1453,Lake Mead @ Hoover (E),,36.195649,-115.12717,,,,
1454,1454,Lake Mead @ James Bilbray (E),,36.195799,-115.237139,,,,
1455,1455,Lake Mead @ James Bilbray (W),,36.196069,-115.238269,,,,
1456,1456,Lake Mead @ Jones (E),,36.195609,-115.223378,,,,
1457,1457,Lake Mead @ Jones (W),,36.195899,-115.224469,,,,
1458,1458,Lake Mead @ Las Vegas (E),,36.195639,-115.128619,,,,
1459,1459,Lake Mead @ Las Vegas (W),,36.196019,-115.129379,,,,
1460,1460,Lake Mead @ Laguna Mist (E),,36.196639,-115.273779,,,,
1461,1461,Lake Mead @ Laguna Mist (W),,36.196989,-115.2747,,,,
1462,1462,Lake Mead @ North Vista Hospital (W),,36.195959,-115.12337,,,,
1463,1463,Lake Mead @ Lamb (E),,36.195499,-115.079619,,,,
1464,1464,Lake Mead @ Lamb (W),,36.195739,-115.080728,,,,
1465,1465,Lake Mead @ Lamont (E),,36.195988,-115.06582,,,,
1466,1466,Lake Mead @ Lamont (W),,36.196189,-115.067638,,,,
1467,1467,Lake Mead @ Leonard (W),,36.195699,-115.21101,,,,
1468,1468,Lake Mead @ Lincoln (E),,36.195509,-115.084238,,,,
1469,1469,Lake Mead @ Lincoln (W),,36.195789,-115.08503,,,,
1470,1470,Lake Mead @ Linn (E),,36.196099,-115.047749,,,,
1471,1471,Lake Mead @ Linn (W),,36.196378,-115.04871,,,,
1473,1473,Lake Mead @ MLK (E),,36.195598,-115.15999,,,,
1474,1474,Lake Mead @ MLK (W),,36.195839,-115.16124,,,,
1475,1475,Lake Mead @ Madeline (E),,36.197559,-115.201499,,,,
1476,1476,Lake Mead @ Madeline (W),,36.197419,-115.202329,,,,
1477,1477,Lake Mead @ Mariner (E),,36.196699,-115.264138,,,,
1478,1478,Lake Mead @ Mariner (W),,36.19714,-115.264978,,,,
1479,1479,Lake Mead @ Marion (E),,36.195829,-115.070118,,,,
1480,1480,Lake Mead @ Marion (W),,36.196049,-115.071678,,,,
1481,1481,Lake Mead @ McDaniel (W),,36.195979,-115.11962,,,,
1482,1482,Lake Mead @ McDaniel (E),,36.195709,-115.119728,,,,
1483,1483,Lake Mead @ Michael (W),,36.195749,-115.215359,,,,
1484,1484,Lake Mead @ Mt Hood (E),,36.195779,-115.034699,,,,
1485,1485,Lake Mead @ Mt Hood (W),,36.196019,-115.03452,,,,
1486,1486,Lake Mead @ Nellis (E),,36.196129,-115.06162,,,,
1487,1487,Lake Mead @ Nellis (W),,36.196349,-115.06275,,,,
1488,1488,Lake Mead @ Nevada Partners (W),,36.195849,-115.150108,,,,
1489,1489,Lake Mead @ Palmer (E),,36.195719,-115.10236,,,,
1490,1490,Lake Mead @ Palmer (W),,36.196019,-115.103729,,,,
1491,1491,Lake Mead @ Pecos (E),,36.195639,-115.097259,,,,
1492,1492,Lake Mead @ Pecos (W),,36.195988,-115.0992,,,,
1493,1493,Lake Mead @ Pueblo Vista (E),,36.196999,-115.269459,,,,
1494,1494,Lake Mead @ Pueblo Vista (W),,36.197158,-115.270318,,,,
1495,1495,Lake Mead @ Pyramid (W),,36.197349,-115.019448,,,,
1496,1496,Lake Mead @ Radwick (W),,36.196219,-115.02229,,,,
1497,1497,Lake Mead @ Rainbow (W),,36.196119,-115.24041,,,,
1498,1498,Lake Mead @ Rainbow (E),,36.195859,-115.240899,,,,
1499,1499,Lake Mead @ Rancho (W),,36.200029,-115.19786,,,,
1500,1500,Lake Mead @ Revere (W),,36.195839,-115.152659,,,,
1501,1501,Lake Mead @ Ringe (W),,36.196378,-115.060339,,,,
1502,1502,Lake Mead @ Rock Springs (W),,36.196157,-115.248678,,,,
1503,1503,Lake Mead @ Sandy (E),,36.195609,-115.093619,,,,
1504,1504,Lake Mead @ Sandy (W),,36.195889,-115.094429,,,,
1505,1505,Lake Mead @ Saylor (E),,36.195558,-115.219458,,,,
1506,1506,Lake Mead @ Shadow Mtn (E),,36.195499,-115.215758,,,,
1507,1507,Lake Mead @ Shatz (E),,36.195629,-115.030319,,,,
1508,1508,Lake Mead @ Shatz (W),,36.195869,-115.030238,,,,
1509,1509,Lake Mead @ Sloan (E),,36.196079,-115.043499,,,,
1510,1510,Lake Mead @ Sloan (W),,36.196369,-115.044659,,,,
1511,1511,Lake Mead @ Summit Hills (E),,36.195649,-115.170748,,,,
1512,1512,Lake Mead @ Tenaya (E),,36.195949,-115.250778,,,,
1513,1513,Lake Mead @ Tenaya (W),,36.196229,-115.251788,,,,
1514,1514,Lake Mead @ Tequesta (E),,36.195439,-115.211948,,,,
1517,1517,Lake Mead @ Torrey Pines (E),,36.195739,-115.232269,,,,
1518,1518,Lake Mead @ Torrey Pines (W),,36.196039,-115.234339,,,,
1519,1519,Lake Mead @ Valley (E),,36.199389,-115.198499,,,,
1520,1520,Lake Mead @ Walnut (E),,36.195558,-115.088548,,,,
1521,1521,Lake Mead @ Walnut (W),,36.195839,-115.0901,,,,
1522,1522,Lake Mead @ White (E),,36.195719,-115.131809,,,,
1523,1523,Lake Mead @ Winwood (W),,36.195829,-115.220068,,,,
1524,1524,Lake Mead @ Yale (E),,36.195719,-115.135309,,,,
1525,1525,Lake Mead @ Lirio (E),,36.195709,-115.2294,,,,
1526,1526,Lake Mead @ Ash,,36.049309,-114.97168,,,,
1529,1529,Lake Mead @ Basic (W),,36.035858,-114.994599,,,,
1530,1530,Lake Mead @ Boulder,,36.04014,-114.980958,,,,
1531,1531,Lake Mead @ Center,,36.055739,-114.967318,,,,
1533,1533,Lake Mead @ Cholla,,36.04283,-114.977439,,,,
1536,1536,Lake Mead @ Henderson Prof. (W),,36.036248,-114.991559,,,,
1537,1537,Lake Mead @ Ivy,,36.045919,-114.97426,,,,
1539,1539,Lake Mead @ Lake Mead Lounge,,36.053169,-114.96907,,,,
1541,1541,Lake Mead @ Pawnee,,36.059019,-114.965098,,,,
1543,1543,Lake Mead @ Taylor,,36.041499,-114.97915,,,,
1545,1545,Lake Mead @ Van Wagenen (W),,36.035209,-114.999829,,,,
1547,1547,Lake Mead @ Tonopah (W),,36.195879,-115.170058,,,,
1549,1549,Lamb @ 4621 N Lamb (N),,36.244829,-115.079828,,,,
1550,1550,Lamb @ Alexander (N),,36.2334,-115.080009,,,,
1551,1551,Lamb @ Alexander (S),,36.232158,-115.080349,,,,
1552,1552,Lamb @ Alto (N),,36.21066,-115.080039,,,,
1553,1553,Lamb @ Alto (S),,36.210019,-115.080378,,,,
1554,1554,Lamb @ Carpenters Union (S),,36.170298,-115.08066,,,,
1555,1555,Lamb @ Baltimore (S),,36.146609,-115.083219,,,,
1557,1557,Lamb @ Bonanza (N),,36.174008,-115.080318,,,,
1558,1558,Lamb @ Bonanza (S),,36.172479,-115.080628,,,,
1559,1559,Lamb @ Boston (N),,36.148749,-115.08296,,,,
1560,1560,Lamb @ Carey (N),,36.203699,-115.080049,,,,
1561,1561,Lamb @ Carey (S),,36.202369,-115.080358,,,,
1562,1562,Lamb @ Karen (N),,36.141148,-115.082739,,,,
1563,1563,Lamb @ Charleston (N),,36.159668,-115.080089,,,,
1564,1564,Lamb @ Charleston (S),,36.15814,-115.080419,,,,
1565,1565,Lamb @ Cheyenne (N),,36.218388,-115.07994,,,,
1566,1566,Lamb @ Cheyenne (S),,36.21717,-115.080298,,,,
1567,1567,Lamb @ Cincinatti (N),,36.145359,-115.082829,,,,
1568,1568,Lamb @ Colton (N),,36.22209,-115.079968,,,,
1569,1569,Lamb @ Colton (S),,36.22129,-115.080298,,,,
1571,1571,Lamb @ Craig (N),,36.241179,-115.079848,,,,
1572,1572,Lamb @ Craig (S),,36.239799,-115.080198,,,,
1573,1573,Lamb @ Diamond Head (N),,36.17054,-115.080318,,,,
1574,1574,Lamb @ Dobson (S),,36.229639,-115.080338,,,,
1575,1575,Lamb @ Elm (S),,36.167769,-115.080688,,,,
1576,1576,Lamb @ Faberge (N),,36.229858,-115.080009,,,,
1577,1577,Lamb @ Halbert (S),,36.17495,-115.080568,,,,
1578,1578,Lamb @ Judson (N),,36.199819,-115.080009,,,,
1579,1579,Lamb @ Judson (S),,36.198739,-115.080338,,,,
1580,1580,Lamb @ Karen (S),,36.140259,-115.083119,,,,
1581,1581,Lamb @ Kell (N),,36.192669,-115.07988,,,,
1583,1583,Lamb @ Kings Canyon (S),,36.178409,-115.080588,,,,
1584,1584,Lamb @ Las Vegas (N),,36.226428,-115.079988,,,,
1585,1585,Lamb @ Las Vegas (S),,36.224518,-115.080338,,,,
1586,1586,Lamb @ Lake Mead (N),,36.196339,-115.079988,,,,
1587,1587,Lamb @ Lake Mead (S),,36.196269,-115.08027,,,,
1588,1588,Lamb @ Manor Green (S),,36.161618,-115.080489,,,,
1589,1589,Lamb @ Monroe (N),,36.186118,-115.079888,,,,
1590,1590,Lamb @ Owens (N),,36.188948,-115.079739,,,,
1591,1591,Lamb @ Owens (S),,36.187879,-115.080119,,,,
1592,1592,Lamb @ Ridgedale (N),,36.134159,-115.082819,,,,
1593,1593,Lamb @ Ridgedale (S),,36.13351,-115.083159,,,,
1594,1594,Lamb @ Sahara (S),,36.14389,-115.083119,,,,
1595,1595,Lamb @ Sherrill (N),,36.162376,-115.080222,,,,
1596,1596,Lamb @ Stewart (N),,36.167359,-115.080349,,,,
1597,1597,Lamb @ Stewart (S),,36.165638,-115.08068,,,,
1598,1598,Lamb @ Sunrise (S),,36.18303,-115.080429,,,,
1599,1599,Lamb @ Tonopah (S),,36.190639,-115.080158,,,,
1600,1600,Lamb @ Vegas Valley (N),,36.137699,-115.082779,,,,
1601,1601,Lamb @ Vegas Valley (S),,36.136348,-115.083108,,,,
1602,1602,Lamb @ Washington (N),,36.18137,-115.080198,,,,
1603,1603,Lamb @ Washington (S),,36.18026,-115.080568,,,,
1604,1604,Lamb @ Wyoming (N),,36.152369,-115.08306,,,,
1605,1605,Lamb @ Wyoming (S),,36.151339,-115.08339,,,,
1614,1614,Lone Mountain @ TJ Maxx (W),,36.247459,-115.082578,,,,
1618,1618,Lone Mountain @ Rancho (W),,36.247889,-115.241049,,,,
1623,1623,Los Feliz @ Wayfarer (S),,36.199329,-115.0178,,,,
1633,1633,MLK @ Alexander (N),,36.232668,-115.16186,,,,
1634,1634,MLK @ Alexander (S),,36.231669,-115.162159,,,,
1635,1635,MLK @ Alta (N),,36.166589,-115.160718,,,,
1637,1637,MLK @ Balzar (N),,36.19987,-115.160658,,,,
1638,1638,MLK @ Balzar (S),,36.198919,-115.161,,,,
1639,1639,MLK @ Bonanza (N),,36.178138,-115.160658,,,,
1640,1640,MLK @ Bonanza (S),,36.176498,-115.160929,,,,
1641,1641,MLK @ Broad Arrow (N),,36.222568,-115.16135,,,,
1642,1642,MLK @ Broad Arrow (S),,36.221788,-115.16163,,,,
1643,1643,MLK @ Brooks (N),,36.214388,-115.160989,,,,
1644,1644,MLK @ Brooks (S),,36.21247,-115.161208,,,,
1645,1645,MLK @ Carey (N),,36.20381,-115.16069,,,,
1646,1646,MLK @ Carey (S),,36.202029,-115.16098,,,,
1649,1649,MLK @ Cheyenne (N),,36.218718,-115.16106,,,,
1650,1650,MLK @ Cheyenne (S),,36.217008,-115.161398,,,,
1651,1651,Camino Al Norte @ Craig (N),,36.24011,-115.161828,,,,
1652,1652,MLK @ Craig (S),,36.238604,-115.162179,,,,
1653,1653,MLK @ Gowan (N),,36.22544,-115.161498,,,,
1654,1654,MLK @ Gowan (S),,36.224198,-115.16176,,,,
1656,1656,MLK @ Helen (N),,36.206119,-115.160738,,,,
1657,1657,MLK @ Helen (S),,36.20547,-115.16106,,,,
1658,1658,MLK @ Jimmy (N),,36.193819,-115.16069,,,,
1659,1659,MLK @ June (N),,36.209008,-115.16083,,,,
1660,1660,MLK @ June (S),,36.208069,-115.16114,,,,
1661,1661,MLK @ Lake Mead (N),,36.196259,-115.160658,,,,
1662,1662,MLK @ Lake Mead (S),,36.194877,-115.160995,,,,
1664,1664,MLK @ Madison (N),,36.184148,-115.16073,,,,
1665,1665,MLK @ Mineral (N),,36.174198,-115.160678,,,,
1666,1666,MLK @ Mineral (S),,36.172572,-115.160946,,,,
1667,1667,MLK @ Owens (N),,36.188989,-115.16069,,,,
1669,1669,MLK @ Cox Communications (N),,36.172228,-115.16069,,,,
1670,1670,MLK @ Ramble Ridge (S),,36.229249,-115.16204,,,,
1671,1671,MLK @ Rev Wilson (N),,36.21171,-115.160929,,,,
1672,1672,MLK @ Direct Buy Furniture (S),,36.169148,-115.16096,,,,
1674,1674,MLK @ Walker Furniture (N),,36.169379,-115.160698,,,,
1675,1675,MLK @ Washington (N),,36.181609,-115.160758,,,,
1676,1676,MLK @ Washington (S),,36.180349,-115.160899,,,,
1677,1677,MLK @ Water Creek (N),,36.228708,-115.16167,,,,
1678,1678,MLK @ Wheeler Peak (S),,36.191266,-115.160994,,,,
1681,1681,Main @ Lewis (N),,36.168559,-115.148299,,,,
1682,1682,Main @ Bonanza (S),,36.17774,-115.142299,,,,
1683,1683,Main @ Bonanza (S),,36.1763,-115.143539,,,,
1685,1685,Main @ Bridger (S),,36.168878,-115.148409,,,,
1686,1686,Main @ Carson (N),,36.170688,-115.14688,,,,
1688,1688,Main @ Charleston (S),,36.158319,-115.153739,,,,
1694,1694,Main @ Imperial (S),,36.15451,-115.15402,,,,
1695,1695,Main @ Las Vegas (N),,36.149389,-115.154159,,,,
1697,1697,Main @ Oakey (N),,36.151639,-115.154,,,,
1698,1698,Main @ Ogden (N),,36.173105,-115.145346,,,,
1699,1699,Main @ Ogden (S),,36.17255,-115.146029,,,,
1700,1700,Main @ Stewart (N),N MAIN ST & STEWART AV,36.17448,-115.144379,,,,
1701,1701,Main @ Washington (S),,36.180389,-115.140849,,,,
1702,1702,Main @ Wyoming (N),,36.15297,-115.153899,,,,
1703,1703,Main @ Wyoming (S),,36.151849,-115.154229,,,,
1715,1715,Maryland @ Steinberg Diagnostics (N),,36.13562,-115.136729,,,,
1716,1716,Maryland @ Almond Tree (S),,36.145068,-115.137179,,,,
1718,1718,Maryland @ Bonanza (N),,36.17468,-115.13041,,,,
1719,1719,Maryland @ Bonanza (W),,36.173618,-115.13078,,,,
1720,1720,Maryland @ Bonita (N),,36.14901,-115.136879,,,,
1721,1721,Maryland @ Pier One Imports (N),,36.11855,-115.13745,,,,
1723,1723,Maryland @ Bridger (N),,36.163339,-115.13275,,,,
1724,1724,Maryland @ Bridger (S),,36.16327,-115.134509,,,,
1725,1725,Maryland @ Cashman (N),,36.17809,-115.127439,,,,
1726,1726,Maryland @ Charleston (N),,36.159369,-115.136718,,,,
1727,1727,Maryland @ Charleston (S),,36.158128,-115.137119,,,,
1728,1728,Maryland @ Clark (N),,36.161268,-115.134779,,,,
1729,1729,Maryland @ Clark (S),,36.160949,-115.136049,,,,
1730,1730,Maryland @ Cottage Grove (S),,36.110909,-115.137799,,,,
1731,1731,Maryland @ Desert Inn (N),,36.130358,-115.136749,,,,
1732,1732,Maryland @ Desert Inn (S),,36.12899,-115.137139,,,,
1733,1733,Maryland @ Flamingo (N),,36.115418,-115.137669,,,,
1734,1734,Maryland @ Flamingo (S),,36.115808,-115.137979,,,,
1735,1735,Maryland @ Flamingo (S),,36.113669,-115.137989,,,,
1736,1736,Maryland @ Franklin (S),,36.15416,-115.137189,,,,
1737,1737,Maryland @ Franklin (N),,36.153949,-115.136879,,,,
1738,1738,Maryland @ Fremont (N),,36.165849,-115.13111,,,,
1739,1739,Maryland @ Fremont (S),,36.16559,-115.133009,,,,
1740,1740,Maryland @ Hacienda (N),,36.094019,-115.136709,,,,
1741,1741,Maryland @ Hacienda (S),,36.093289,-115.137028,,,,
1742,1742,Maryland @ Harmon (N),,36.108649,-115.137299,,,,
1743,1743,Maryland @ Harmon (S),,36.107197,-115.137484,,,,
1744,1744,Maryland @ Jessica (N),,36.15685,-115.136419,,,,
1746,1746,Maryland @ Karen (S),,36.139608,-115.137068,,,,
1747,1747,Maryland @ Katie (N),,36.121018,-115.137329,,,,
1748,1748,Maryland @ Katie (S),,36.119748,-115.137739,,,,
1749,1749,Maryland @ Laguna (N),,36.13999,-115.136739,,,,
1751,1751,Maryland @ Carnaby Square (S),,36.122658,-115.137519,,,,
1752,1752,13th @ Mesquite (E),,36.17144,-115.129719,,,,
1753,1753,Maryland @ Mesquite (W),,36.170668,-115.130068,,,,
1754,1754,Maryland @ Oakey (N),,36.151939,-115.136869,,,,
1755,1755,Maryland @ Oakey (S),,36.150689,-115.137189,,,,
1756,1756,Maryland @ Rawhide (N),,36.090369,-115.13669,,,,
1758,1758,Maryland @ Reno (N),,36.097869,-115.136739,,,,
1759,1759,Maryland @ Reno (S),,36.096879,-115.13706,,,,
1760,1760,Maryland @ Rochelle (N),,36.11155,-115.137509,,,,
1762,1762,Maryland @ Sagman (W),,36.178338,-115.127628,,,,
1763,1763,Maryland @ Sahara (N),,36.145009,-115.136889,,,,
1764,1764,Maryland @ Sahara (S),,36.143349,-115.137099,,,,
1765,1765,Maryland @ Sahara (N),,36.14272,-115.136709,,,,
1766,1766,Maryland @ Desert Inn (N),,36.129099,-115.136759,,,,
1767,1767,Maryland @ Sierra Vista (S),,36.12651,-115.137309,,,,
1768,1768,Maryland @ Sierra Vista (N),,36.126068,-115.137019,,,,
1769,1769,Maryland @ St Louis (S),,36.147468,-115.137189,,,,
1770,1770,13th @ Stewart (N),,36.168559,-115.129689,,,,
1771,1771,Maryland @ Stewart (S),,36.16744,-115.13174,,,,
1772,1772,Maryland @ Sunrise Hospital (S),,36.132388,-115.137099,,,,
1773,1773,Maryland @ Sunrise Hospital (N),,36.132209,-115.136749,,,,
1774,1774,Maryland @ Tropicana (N),,36.101529,-115.136789,,,,
1775,1775,Maryland @ Tropicana (S),,36.100118,-115.137088,,,,
1776,1776,Maryland @ Twain (N),,36.122658,-115.137209,,,,
1777,1777,Maryland @ Twain (S),,36.121639,-115.137619,,,,
1778,1778,Maryland @ University (N),,36.104079,-115.136939,,,,
1779,1779,Maryland @ University (S),,36.103409,-115.137269,,,,
1780,1780,Maryland @ Vegas Valley (N),,36.137829,-115.136718,,,,
1781,1781,Maryland @ Vegas Valley (S),,36.136698,-115.13708,,,,
1782,1782,Maryland @ Wilson (N),,36.176108,-115.130398,,,,
1783,1783,Maryland @ Wilson (W),,36.176538,-115.13078,,,,
1785,1785,McCarran International Airport (N),,36.085359,-115.147959,,,,
1787,1787,McLeod @ Desert Inn (S),,36.130598,-115.10995,,,,
1788,1788,McLeod @ Desert Inn (N),,36.13049,-115.109619,,,,
1789,1789,McLeod @ Holly Hill (S),,36.146419,-115.110039,,,,
1790,1790,McLeod @ Karen (N),,36.143118,-115.10979,,,,
1791,1791,McLeod @ Karen (S),,36.140159,-115.110019,,,,
1792,1792,McLeod @ Palora (N),,36.134139,-115.109689,,,,
1793,1793,McLeod @ Sahara (N),,36.144739,-115.10983,,,,
1794,1794,McLeod @ Sahara (S),,36.143528,-115.110069,,,,
1795,1795,McLeod @ Scarlet Oak (N),,36.147639,-115.109838,,,,
1796,1796,McLeod @ Schaffer (S),,36.13287,-115.109978,,,,
1797,1797,McLeod @ Vegas Valley (N),,36.138378,-115.10977,,,,
1798,1798,McLeod @ Vegas Valley (S),,36.136669,-115.109989,,,,
1799,1799,Meadows @ 4500 Meadows (W),,36.17031,-115.201629,,,,
1800,1800,Meadows @ YMCA (W),MEADOWS LA,36.17025,-115.19696,,,,
1801,1801,Meadows @ Decatur (E),,36.16998,-115.20523,,,,
1815,1815,Miller @ Aloha Vegas (E),,36.200949,-115.145089,,,,
1816,1816,Miller @ Aloha Vegas (W),,36.201409,-115.145368,,,,
1817,1817,Miller @ Commerce (W),,36.199929,-115.143459,,,,
1818,1818,Miller @ Englestad (E),,36.201919,-115.14657,,,,
1819,1819,Tropicana @ Andover (W),,36.100609,-115.054369,,,,
1820,1820,Stephanie @ Tropicana (N),,36.101039,-115.046389,,,,
1821,1821,Mohawk @ Lake Mead,,36.062159,-114.96156,,,,
1824,1824,Mountain Vista @ San Rafael (N),,36.096769,-115.07307,,,,
1835,1835,Nellis @ I (N),,36.22661,-115.06201,,,,
1836,1836,Nellis @ Adobe Springs (S),,36.170628,-115.062309,,,,
1837,1837,Nellis @ Alexander (N),,36.233448,-115.061998,,,,
1838,1838,Nellis (S),,36.231768,-115.062339,,,,
1839,1839,Nellis @ Alto (N),,36.211698,-115.06207,,,,
1840,1840,Nellis @ Alto (S),,36.21025,-115.0624,,,,
1841,1841,Nellis @ Baltimore (N),,36.147399,-115.06529,,,,
1842,1842,Nellis @ Baltimore (S),,36.146749,-115.06564,,,,
1843,1843,Nellis @ Bel Port (N),,36.16245,-115.06205,,,,
1844,1844,Nellis @ Billman (S),,36.105369,-115.06439,,,,
1845,1845,Nellis @ Rita (S),,36.101329,-115.06418,,,,
1847,1847,Nellis @ Bonanza (N),,36.174648,-115.06203,,,,
1848,1848,Nellis @ Bonanza (S),,36.173598,-115.062349,,,,
1849,1849,Nellis @ Boulder (N),,36.113639,-115.064478,,,,
1850,1850,Nellis @ Boulder (S),,36.11231,-115.06474,,,,
1851,1851,Nellis @ Boulder Manor (N),,36.118469,-115.06472,,,,
1852,1852,Nellis @ Boulder Manor (S),,36.118128,-115.065039,,,,
1853,1853,Nellis @ Carey (N),,36.20418,-115.06203,,,,
1854,1854,Nellis @ Carey (S),,36.202839,-115.062349,,,,
1855,1855,Nellis @ Cecile (N),,36.21489,-115.06205,,,,
1856,1856,Nellis @ Cecile (S),,36.214329,-115.062388,,,,
1857,1857,Nellis @ Charleston (N),,36.159539,-115.062138,,,,
1858,1858,Nellis @ Charleston (S),,36.158359,-115.0625,,,,
1859,1859,Nellis @ Cheyenne (N),,36.2191,-115.06203,,,,
1860,1860,Nellis @ Cheyenne (S),,36.21758,-115.062369,,,,
1861,1861,Nellis @ Chicago (S),,36.150119,-115.065608,,,,
1862,1862,Nellis @ Desert Inn (N),,36.130409,-115.065195,,,,
1863,1863,Nellis @ Desert Inn (S),,36.12916,-115.065509,,,,
1864,1864,Nellis @ Desert Winds (S),,36.22942,-115.062339,,,,
1865,1865,Nellis @ Desert Winds (N),,36.229468,-115.061998,,,,
1866,1866,Nellis @ Dunes (N),,36.221358,-115.062018,,,,
1867,1867,Nellis @ Dunes (S),,36.220538,-115.062329,,,,
1868,1868,Nellis @ Echo Bay (S),,36.139898,-115.06568,,,,
1869,1869,Nellis @ Flamingo (S),,36.11596,-115.06496,,,,
1870,1870,Nellis @ Flamingo (N),,36.115329,-115.06457,,,,
1871,1871,Nellis @ Gowan (S),,36.224828,-115.062349,,,,
1872,1872,Nellis @ Happy Valley (N),,36.134028,-115.065318,,,,
1873,1873,Nellis @ Happy Valley (S),,36.132898,-115.06562,,,,
1874,1874,Nellis @ Harmon (N),,36.108,-115.064228,,,,
1875,1875,Nellis @ Harris (N),,36.17852,-115.06203,,,,
1876,1876,Nellis @ Harris (S),,36.17712,-115.06236,,,,
1877,1877,Nellis @ Judson (N),,36.200339,-115.06201,,,,
1878,1878,Nellis @ Judson (S),,36.199589,-115.062339,,,,
1879,1879,Nellis @ Kell (N),,36.192979,-115.062018,,,,
1880,1880,Nellis @ Kell (S),,36.191859,-115.06236,,,,
1881,1881,Nellis @ Las Vegas (N),,36.237099,-115.061998,,,,
1882,1882,Nellis @ Las Vegas (S),,36.234839,-115.062339,,,,
1883,1883,Nellis @ Lake Mead (N),,36.196639,-115.06201,,,,
1884,1884,Nellis @ Lake Mead (S),,36.195578,-115.062329,,,,
1885,1885,Nellis @ Monroe (N),,36.185409,-115.062038,,,,
1886,1886,Nellis @ Monroe (S),,36.18453,-115.062369,,,,
1887,1887,Nellis @ Nellis Oasis (N),,36.223678,-115.06201,,,,
1888,1888,Nellis @ Nellis Oasis (S),,36.223068,-115.062349,,,,
1889,1889,Nellis @ New World (N),,36.150269,-115.06525,,,,
1890,1890,Nellis @ Owens (N),,36.1896,-115.06201,,,,
1891,1891,Nellis @ Owens (S),,36.18845,-115.06238,,,,
1892,1892,Nellis @ Pancho Villa (S),,36.109389,-115.064598,,,,
1893,1893,Nellis @ Powell (N),,36.110989,-115.064378,,,,
1894,1894,Nellis @ Sahara (N),,36.144979,-115.06529,,,,
1895,1895,Nellis @ Sahara (S),,36.143759,-115.06566,,,,
1896,1896,Nellis @ Silverado (S),,36.094869,-115.064148,,,,
1897,1897,Nellis @ Spyglass Hill (N),,36.142039,-115.06533,,,,
1898,1898,Nellis @ Stewart (S),,36.161909,-115.062408,,,,
1899,1899,Nellis @ Stewart (N),,36.167158,-115.061909,,,,
1900,1900,Nellis @ Stewart (S),,36.165868,-115.062299,,,,
1901,1901,Nellis @ Sun Valley (N),,36.105119,-115.06412,,,,
1902,1902,Nellis @ Tropicana (N),,36.101109,-115.06383,,,,
1903,1903,Nellis @ Tropicana (S),,36.099539,-115.064108,,,,
1904,1904,Nellis @ Twain (N),,36.1228,-115.06494,,,,
1905,1905,Nellis @ Twain (S),,36.12171,-115.06523,,,,
1906,1906,Nellis @ Vegas Valley (N),,36.138278,-115.065378,,,,
1907,1907,Nellis @ Vegas Valley (S),,36.13636,-115.06572,,,,
1908,1908,Nellis @ Vista Flora (N),,36.12663,-115.06509,,,,
1909,1909,Nellis @ Vista Flora (S),,36.12589,-115.06539,,,,
1910,1910,Nellis @ Walnut (E),,36.17269,-115.061998,,,,
1911,1911,Nellis @ Washington (N),,36.182218,-115.06203,,,,
1912,1912,Nellis @ Washington (S),,36.180698,-115.062369,,,,
1913,1913,Nellis @ Winterwood (N),,36.154239,-115.06357,,,,
1915,1915,Nevada @ Elm (W),,35.97399,-114.842619,,,,
1916,1916,Nevada @ Gingerwood,,35.968298,-114.860319,,,,
1917,1917,Nevada @ Gingerwood (W),,35.968648,-114.861109,,,,
1918,1918,Nevada @ Birch (W),,35.975609,-114.839728,,,,
1975,1975,Harrison @ D (E),,36.187989,-115.146739,,,,
1976,1976,Owens @ D (W),,36.188549,-115.148098,,,,
1977,1977,Harrison @ F (E),,36.187929,-115.149459,,,,
1978,1978,Owens @ H (W),,36.188538,-115.153109,,,,
1979,1979,Owens @ H (W),,36.188289,-115.15252,,,,
1980,1980,Owens @ J (E),,36.188319,-115.155839,,,,
1981,1981,Owens @ J (W),,36.188579,-115.156959,,,,
1982,1982,Owens @ N (E),,36.188339,-115.159648,,,,
1983,1983,Owens @ 21st (E),,36.188359,-115.119909,,,,
1984,1984,Owens @ 4541 Owens (E),,36.188359,-115.075498,,,,
1985,1985,Owens @ Arthur (E),,36.188269,-115.110618,,,,
1987,1987,Owens @ Betty (E),,36.188739,-115.056719,,,,
1988,1988,Owens @ Betty (W),,36.189009,-115.05774,,,,
1989,1989,Owens @ Bruce (E),,36.188339,-115.124388,,,,
1990,1990,Owens @ Bruce (W),,36.188549,-115.12571,,,,
1991,1991,Owens @ Christy (E),,36.1888,-115.051959,,,,
1992,1992,Owens @ Christy (W),,36.189059,-115.05339,,,,
1993,1993,Owens @ Civic Center (W),,36.188589,-115.116568,,,,
1994,1994,Owens @ Davis (E),,36.188339,-115.137589,,,,
1995,1995,Owens @ Davis (W),,36.188579,-115.138199,,,,
1996,1996,Owens @ Desert Flower (W),,36.189009,-115.034219,,,,
1997,1997,Owens @ Eastern (E),,36.188359,-115.115278,,,,
1998,1998,Owens @ Royal Estates (E),,36.188319,-115.082889,,,,
1999,1999,Owens @ Gateway (W),,36.18849,-115.088069,,,,
2001,2001,Owens @ Hollywood (W),,36.18886,-115.026369,,,,
2002,2002,Owens @ Hoover (W),,36.188329,-115.127568,,,,
2003,2003,Owens @ Hoover (W),,36.188538,-115.128678,,,,
2004,2004,Owens @ Las Vegas (E),,36.188349,-115.133598,,,,
2005,2005,Owens @ Las Vegas (W),,36.188529,-115.13468,,,,
2006,2006,Owens @ Lamb (E),,36.188379,-115.078738,,,,
2007,2007,Owens @ Lamont (W),,36.188749,-115.06716,,,,
2008,2008,Owens @ Linn (E),,36.188769,-115.047699,,,,
2009,2009,Owens @ Linn (W),,36.189049,-115.04906,,,,
2010,2010,Owens @ Raul (W),,36.18847,-115.110069,,,,
2012,2012,Owens @ Marion (W),,36.188599,-115.071478,,,,
2013,2013,Owens @ Mary Jane (E),,36.188478,-115.06751,,,,
2014,2014,Owens @ McDaniel (W),,36.188569,-115.120348,,,,
2015,2015,Owens @ Mojave (E),,36.188189,-115.106469,,,,
2018,2018,Owens @ Nellis (E),,36.188679,-115.061378,,,,
2019,2019,Owens @ Nellis (W),,36.188919,-115.06275,,,,
2020,2020,Owens @ Nellis (E),,36.188629,-115.06336,,,,
2021,2021,Owens @ James (W),,36.188398,-115.106409,,,,
2022,2022,Owens @ Palmer (E),,36.1881,-115.102229,,,,
2023,2023,Owens @ Patricia (W),,36.18851,-115.112039,,,,
2024,2024,Owens @ Pecos (E),,36.18802,-115.097759,,,,
2025,2025,Owens @ Pecos (W),,36.188239,-115.099029,,,,
2026,2026,Owens @ Sandhill (E),,36.188219,-115.088329,,,,
2027,2027,Owens @ Shatz (W),,36.188939,-115.030588,,,,
2028,2028,Owens @ Stevens (W),,36.188398,-115.092769,,,,
2029,2029,Owens @ Stevens (E),,36.188148,-115.091799,,,,
2030,2030,Owens @ Sunrise View (E),,36.188739,-115.041549,,,,
2031,2031,Owens @ Monarch Canyon (W),,36.189029,-115.043229,,,,
2032,2032,Owens @ Thata (E),,36.188349,-115.071658,,,,
2033,2033,Owens @ Villa De Oro (W),,36.188629,-115.076899,,,,
2042,2042,Palm @ Center (N),,36.157539,-115.101009,,,,
2043,2043,Palm @ Charleston (S),,36.15812,-115.101279,,,,
2044,2044,Palm @ Olive (S),,36.153989,-115.101178,,,,
2045,2045,Palm @ Wyoming (N),,36.154229,-115.100909,,,,
2049,2049,Palo Verde @ Grape (S),,36.035778,-114.963319,,,,
2050,2050,Palo Verde @ La Jolla (S),,36.029398,-114.963339,,,,
2051,2051,Palo Verde @ Lombardy (S),,36.033259,-114.963319,,,,
2054,2054,Palo Verde @ Newport (S),,36.026478,-114.963339,,,,
2056,2056,Paradise @ Bonita Terrace (S),,36.14506,-115.15435,,,,
2058,2058,Paradise @ Corporate (S),,36.11791,-115.15511,,,,
2059,2059,Paradise @ Desert Inn (S),,36.129078,-115.155029,,,,
2060,2060,Paradise @ Sands (S),,36.122518,-115.15513,,,,
2061,2061,Paradise @ Flamingo (S),,36.113639,-115.153949,,,,
2062,2062,Paradise @ Gus Giuffre (S),,36.097409,-115.148938,,,,
2063,2063,Paradise @ Hard Rock (S),,36.110189,-115.15293,,,,
2064,2064,Paradise @ Harmon (S),,36.10759,-115.15209,,,,
2065,2065,Paradise @ Naples (S),,36.104999,-115.151278,,,,
2066,2066,Paradise @ Riviera (S),,36.135138,-115.154989,,,,
2067,2067,Paradise @ Sahara (N),,36.14625,-115.153288,,,,
2068,2068,Paradise @ Sahara (N),,36.144119,-115.154589,,,,
2069,2069,Paradise @ Sahara (S),,36.142399,-115.154949,,,,
2070,2070,Paradise @ Sands (S),,36.120218,-115.15519,,,,
2071,2071,Paradise @ Edison (S),,36.125149,-115.155069,,,,
2072,2072,Paradise @ Tropicana (S),,36.102169,-115.150369,,,,
2073,2073,Paradise @ Karen (S),,36.139039,-115.154969,,,,
2078,2078,Patrick @ Caballo (W),,36.07844,-115.050999,,,,
2079,2079,Patrick @ Stephanie (W),,36.078508,-115.046009,,,,
2080,2080,Peace @ Ashbrook (N),,36.103399,-115.249978,,,,
2082,2082,Pecos @ Washington (S),,36.182038,-115.098469,,,,
2083,2083,Pecos @ Alto (S),,36.210399,-115.098679,,,,
2084,2084,Pecos @ Alto (N),,36.210719,-115.09836,,,,
2085,2085,Pecos @ Pecos (N),,36.16532,-115.098059,,,,
2086,2086,Pecos @ Bartlett (N),,36.200599,-115.098279,,,,
2087,2087,Pecos @ Bartlett (S),,36.199969,-115.098589,,,,
2089,2089,Pecos @ Bonanza (N),,36.174059,-115.098109,,,,
2090,2090,Pecos @ Bonanza (S),,36.173088,-115.09842,,,,
2091,2091,Pecos @ Carey (N),,36.203689,-115.098299,,,,
2092,2092,Pecos @ Carey (S),,36.202859,-115.098609,,,,
2093,2093,Pecos @ Cartier (N),,36.206909,-115.098339,,,,
2094,2094,Pecos @ Cartier (S),,36.206469,-115.098649,,,,
2095,2095,Pecos @ Casey (S),,36.095279,-115.101198,,,,
2096,2096,Pecos @ Charleston (N),,36.15933,-115.100909,,,,
2097,2097,Pecos @ College View (S),,36.2161,-115.09877,,,,
2098,2098,Pecos @ Colton (S),,36.220768,-115.098778,,,,
2099,2099,Pecos @ Diamond Head (N),,36.172058,-115.098109,,,,
2100,2100,Pecos @ Diamond Head (S),,36.17121,-115.098428,,,,
2101,2101,Pecos @ Flamingo (N),,36.114448,-115.10071,,,,
2102,2102,Pecos @ Flamingo (S),,36.11436,-115.101059,,,,
2103,2103,Pecos @ Folage (N),,36.178419,-115.098139,,,,
2104,2104,Pecos @ Freedom (S),,36.178238,-115.098449,,,,
2105,2105,Pecos @ Geist (N),,36.212659,-115.098369,,,,
2106,2106,Pecos @ Gowan (S),,36.22468,-115.09881,,,,
2107,2107,Pecos @ Hacienda (N),,36.094239,-115.100859,,,,
2108,2108,Pecos @ Hacienda (S),,36.092759,-115.101178,,,,
2109,2109,Pecos @ Harmon (N),,36.10833,-115.100569,,,,
2110,2110,Pecos @ Harmon (S),,36.107169,-115.100909,,,,
2111,2111,Pecos @ Las Vegas (N),,36.21532,-115.098408,,,,
2112,2112,Pecos @ Lake Mead (N),,36.196539,-115.098249,,,,
2113,2113,Pecos @ Lake Mead (S),,36.195249,-115.098559,,,,
2114,2114,Pecos @ Las Vegas (S),,36.21384,-115.098729,,,,
2115,2115,Pecos @ Madama (N),,36.185318,-115.098169,,,,
2116,2116,Pecos @ Milenko (S),,36.11036,-115.100969,,,,
2117,2117,Pecos @ Mojave (N),,36.123378,-115.106328,,,,
2118,2118,Pecos @ Owens (N),,36.18882,-115.098179,,,,
2119,2119,Pecos @ Owens (S),,36.18773,-115.098499,,,,
2120,2120,Pecos @ Bookfield (S),,36.090459,-115.101158,,,,
2121,2121,Pecos @ Patrick (N),,36.079779,-115.1008,,,,
2122,2122,Pecos @ Patrick (S),,36.07836,-115.10113,,,,
2123,2123,Pecos @ Pepper (N),,36.076968,-115.100768,,,,
2124,2124,Pecos @ Pepper (S),,36.075928,-115.101099,,,,
2125,2125,Pecos @ Perliter (N),,36.19239,-115.098209,,,,
2126,2126,Pecos @ Perliter (S),,36.192139,-115.098529,,,,
2127,2127,Pecos @ Rawhide (N),,36.090349,-115.100839,,,,
2128,2128,Pecos @ Reno (N),,36.097689,-115.100889,,,,
2129,2129,Pecos @ Reynolds (S),,36.189979,-115.098509,,,,
2130,2130,Pecos @ Rochelle (N),,36.112939,-115.1007,,,,
2131,2131,Pecos @ Russell (N),,36.087048,-115.10082,,,,
2132,2132,Pecos @ Russell (S),,36.085608,-115.10115,,,,
2133,2133,Pecos @ Spectrum Village (N),,36.162478,-115.099049,,,,
2134,2134,Pecos @ Stewart (S),,36.165108,-115.09838,,,,
2135,2135,Pecos @ Sunrise (S),,36.161759,-115.100289,,,,
2136,2136,Pecos @ Sunset (N),,36.07288,-115.1007,,,,
2137,2137,Pecos @ Tompkins (N),,36.104549,-115.100689,,,,
2138,2138,Pecos @ Tompkins (S),,36.103109,-115.10109,,,,
2139,2139,Pecos @ Tropicana (N),,36.100669,-115.100879,,,,
2140,2140,Pecos @ Tropicana (S),,36.099389,-115.10123,,,,
2141,2141,Pecos @ Viking (N),,36.117582,-115.100896,,,,
2142,2142,Pecos @ Washington (N),,36.18135,-115.098139,,,,
2143,2143,Pecos @ Washington (S),,36.18051,-115.098459,,,,
2144,2144,Pecos @ Desert Inn (S),,36.12926,-115.10995,,,,
2145,2145,Pecos @ McLeod (S),,36.124759,-115.108449,,,,
2146,2146,Pecos @ Twain (S),,36.12249,-115.105699,,,,
2147,2147,Pecos @ Viking (S),,36.11754,-115.10121,,,,
2148,2148,Pennwood @ Arville (W),,36.137399,-115.200208,,,,
2149,2149,Pennwood @ Arville (E),,36.137218,-115.19899,,,,
2150,2150,Pennwood @ Castlewood (W),,36.137389,-115.20324,,,,
2151,2151,Pennwood @ Decatur (E),,36.137168,-115.20753,,,,
2152,2152,Pennwood @ Emerald Park (E),,36.1372,-115.203489,,,,
2153,2153,Pennwood @ Sleepy Hollow (W),,36.137379,-115.20605,,,,
2154,2154,Pennwood @ Valley View (W),,36.137439,-115.191249,,,,
2155,2155,Pennwood @ Wing (E),,36.137228,-115.194499,,,,
2156,2156,Pennwood @ Wing (W),,36.137409,-115.19542,,,,
2163,2163,Pueblo @ Concho (S),,36.050399,-114.959029,,,,
2165,2165,Pueblo @ Kirk (S),,36.053349,-114.959009,,,,
2167,2167,Pueblo @ Pima (S),,36.056229,-114.959029,,,,
2170,2170,Pueblo @ Yuma (S),,36.058439,-114.959029,,,,
2177,2177,Rainbow @ Tropicana (N),,36.098589,-115.242869,,,,
2178,2178,Rainbow @ Accent (S),,36.239599,-115.242408,,,,
2179,2179,Rainbow @ Alexander (N),,36.233579,-115.242179,,,,
2180,2180,Rainbow @ Alexander (S),,36.231908,-115.242459,,,,
2181,2181,Rainbow @ Alta (N),,36.166888,-115.244089,,,,
2182,2182,Rainbow @ Alta (S),,36.16594,-115.244519,,,,
2183,2183,Rainbow @ Ann (S),,36.262558,-115.242569,,,,
2184,2184,Rainbow @ Atwood (S),,36.219618,-115.242449,,,,
2185,2185,Rainbow @ Buckskin (N),,36.222388,-115.242179,,,,
2186,2186,Rainbow @ Charleston (N),,36.159979,-115.24355,,,,
2187,2187,Rainbow @ Charleston (S),,36.15847,-115.24392,,,,
2188,2188,Rainbow @ Cheyenne (N),,36.2186,-115.242179,,,,
2189,2189,Rainbow @ Cheyenne (S),,36.217509,-115.242459,,,,
2190,2190,Rainbow @ Palmyra (S),,36.132778,-115.24316,,,,
2192,2192,Rainbow @ Del Rey (N),,36.155849,-115.243329,,,,
2193,2193,Rainbow @ Del Rey (S),,36.154908,-115.243719,,,,
2194,2194,Rainbow @ Desert Inn (N),,36.130219,-115.242798,,,,
2195,2195,Rainbow @ Desert Inn (S),,36.128838,-115.243208,,,,
2196,2196,Rainbow @ Edna (N),,36.137518,-115.24275,,,,
2197,2197,Rainbow @ Eldora (N),,36.141179,-115.242739,,,,
2198,2198,Rainbow @ Endora (N),,36.11873,-115.242778,,,,
2199,2199,Rainbow @ Endora (S),,36.117699,-115.243188,,,,
2200,2200,Rainbow @ Flamingo (N),,36.11541,-115.24277,,,,
2201,2201,Rainbow @ Flamingo (S),,36.113468,-115.243169,,,,
2202,2202,Rainbow @ Gazelle (N),,36.193079,-115.242189,,,,
2204,2204,Rainbow @ Gowan (N),,36.225998,-115.242189,,,,
2207,2207,Rainbow @ Hacienda (S),,36.091788,-115.243149,,,,
2208,2208,Rainbow @ Bernie Marcus (S),,36.16114,-115.244069,,,,
2209,2209,Rainbow @ Bernie Marcus (N),,36.163389,-115.243879,,,,
2210,2210,Rainbow @ Lake Mead (N),,36.196479,-115.241869,,,,
2211,2211,Rainbow @ Lake Mead (S),,36.194569,-115.24242,,,,
2212,2212,Rainbow @ Laredo (N),,36.143098,-115.242739,,,,
2213,2213,Rainbow @ Rainbow Ridge Plaza (N),,36.216694,-115.242196,,,,
2214,2214,Rainbow @ Light Breeze (S),,36.21493,-115.242439,,,,
2217,2217,Rainbow @ O'Bannon (S),,36.147309,-115.243329,,,,
2218,2218,Rainbow @ O'Bannon (N),,36.148789,-115.242949,,,,
2219,2219,Rainbow @ Oakey (N),,36.152359,-115.243149,,,,
2220,2220,Rainbow @ Oakey (S),,36.15098,-115.243509,,,,
2222,2222,Rainbow @ Palmyra (N),,36.133839,-115.242778,,,,
2223,2223,Rainbow @ Peak (N),,36.211348,-115.242169,,,,
2224,2224,Rainbow @ Peak (S),,36.21011,-115.24242,,,,
2225,2225,Rainbow @ Red Coach (S),,36.243419,-115.242388,,,,
2226,2226,Rainbow @ Riverdale (N),,36.230308,-115.242199,,,,
2227,2227,Rainbow @ Riverdale (S),,36.229588,-115.242449,,,,
2228,2228,Rainbow @ Sahara (N),,36.145498,-115.242778,,,,
2229,2229,Rainbow @ Sahara (S),,36.143559,-115.243099,,,,
2230,2230,Rainbow @ Silverstream (N),,36.179328,-115.242149,,,,
2231,2231,Rainbow @ Smoke Ranch (N),,36.204029,-115.242169,,,,
2232,2232,Rainbow @ Smoke Ranch (S),,36.202839,-115.242408,,,,
2233,2233,Rainbow @ Snake River (S),,36.25791,-115.242489,,,,
2234,2234,Rainbow @ Spring Mountain (N),,36.12698,-115.24279,,,,
2235,2235,Rainbow @ Spring Mountain (S),,36.124648,-115.2432,,,,
2236,2236,Rainbow @ Spring Valley (N),,36.111739,-115.24279,,,,
2237,2237,Rainbow @ Spring Valley (S),,36.102649,-115.243269,,,,
2239,2239,Rainbow @ Spring Valley (S),,36.10997,-115.24322,,,,
2241,2241,Rainbow @ Eldora (S),,36.140149,-115.243099,,,,
2242,2242,Rainbow @ Welcome (S),,36.253829,-115.242449,,,,
2245,2245,Rainbow @ Tropicana (S),,36.098839,-115.243279,,,,
2247,2247,Rainbow @ Twain (N),,36.12253,-115.24281,,,,
2249,2249,Rainbow @ Twain (S),,36.121368,-115.243188,,,,
2250,2250,Rainbow @ Vegas (N),,36.189889,-115.242159,,,,
2251,2251,Rainbow @ Vegas (S),,36.18804,-115.242449,,,,
2252,2252,Rainbow @ Washington (N),,36.181609,-115.242129,,,,
2253,2253,Rainbow @ Washington (S),,36.18014,-115.242519,,,,
2254,2254,Rainbow @ Westcliff (S),,36.17304,-115.244629,,,,
2255,2255,Rainbow @ Westcliff (N),,36.172758,-115.244179,,,,
2256,2256,Rainbow @ White Sands (S),,36.169988,-115.244579,,,,
2257,2257,Rainbow @ Wild Bob (N),,36.236909,-115.242139,,,,
2258,2258,Rainbow @ Wild Bob (S),,36.23578,-115.242449,,,,
2259,2259,Rainbow @ Willow Lake (S),,36.221198,-115.242449,,,,
2260,2260,Rainbow @ Willow Wood (S),,36.224788,-115.242459,,,,
2261,2261,Rainbow @ Yorktowne (N),,36.207468,-115.242169,,,,
2262,2262,Rainbow @ Yorktowne (S),,36.206459,-115.242428,,,,
2265,2265,Rampart @ Lake Mead (N),,36.200609,-115.281369,,,,
2266,2266,Rampart @ Lake Mead (N),,36.199279,-115.282628,,,,
2267,2267,Rampart @ Pt Conception (N),,36.206409,-115.278789,,,,
2268,2268,Rampart @ Scholar (N),,36.197079,-115.284659,,,,
2270,2270,Rancho @ Airport (N),,36.207509,-115.203119,,,,
2272,2272,Jimmy Durante @ Tropicana (N),,36.101159,-115.039509,,,,
2273,2273,Rancho @ Alta (S),,36.16569,-115.172828,,,,
2274,2274,Rancho @ Artesia (S),,36.18246,-115.180639,,,,
2275,2275,Rancho @ Bonanza (S),,36.176968,-115.175778,,,,
2278,2278,Rancho @ Carey (N),,36.203239,-115.199219,,,,
2279,2279,Rancho @ Charleston (N),,36.159608,-115.172638,,,,
2281,2281,Rancho @ Cheyenne (N),,36.217608,-115.21231,,,,
2282,2282,Rancho @ Cheyenne (S),,36.216598,-115.211849,,,,
2283,2283,Rancho @ Texas Station (N),,36.196799,-115.193279,,,,
2284,2284,Rancho @ Coran (S),,36.195309,-115.192419,,,,
2285,2285,Rancho @ Craig (N),,36.240758,-115.233475,,,,
2286,2286,Rancho @ Craig (S),,36.239059,-115.232329,,,,
2287,2287,Rancho @ Crystal Palace (S),,36.228998,-115.22316,,,,
2288,2288,Rancho @ Decatur (N),,36.21397,-115.20898,,,,
2290,2290,Rancho @ Decatur (N),,36.211543,-115.206773,,,,
2291,2291,Rancho @ Decatur (S),,36.208769,-115.204709,,,,
2292,2292,Rancho @ Duncan (N),,36.22786,-115.221669,,,,
2293,2293,Rancho @ Duncan (S),,36.226919,-115.221269,,,,
2294,2294,Rancho @ Dune (N),,36.183698,-115.181379,,,,
2296,2296,Rancho @ Ernest May (N),,36.180048,-115.178098,,,,
2297,2297,Rancho @ Ernest May (S),,36.17893,-115.177529,,,,
2298,2298,Rancho @ Gowan (N),,36.22507,-115.219088,,,,
2299,2299,Rancho @ Gowan (S),,36.224028,-115.218658,,,,
2300,2300,Rancho @ Holly (N),,36.191658,-115.188679,,,,
2301,2301,Rancho @ Jay (N),,36.221792,-115.216181,,,,
2302,2302,Rancho @ Jones (N),,36.23348,-115.226759,,,,
2303,2303,Rancho @ Lake Mead (N),,36.200639,-115.196809,,,,
2304,2304,Rancho @ Lake Mead (S),,36.199428,-115.19622,,,,
2306,2306,Rancho @ Lone Mountain (S),,36.24724,-115.239839,,,,
2308,2308,Rancho @ Melody (S),,36.1928,-115.190139,,,,
2309,2309,Rancho @ Mesquite (N),,36.173808,-115.173088,,,,
2310,2310,Rancho @ Mesquite (S),,36.173048,-115.173278,,,,
2311,2311,Rancho @ Michael (S),,36.221158,-115.216,,,,
2312,2312,Rancho @ Airport (S),,36.206379,-115.202528,,,,
2316,2316,Rancho @ Painted Desert (S),,36.242629,-115.235579,,,,
2317,2317,Rancho @ Palomino (N),,36.16282,-115.17257,,,,
